{
  "泊點": [
    {
      "name": "石碇服務區",
      "lat": 25.009011,
      "lng": 121.643913,
      "folder": "泊點",
      "hot_water": -1
    },
    {
      "name": "泰安休息站",
      "lat": 24.330168,
      "lng": 120.711272,
      "folder": "泊點",
      "hot_water": 0
    },
    {
      "name": "新營服務區",
      "lat": 23.340714,
      "lng": 120.311985,
      "folder": "泊點",
      "hot_water": 0
    },
    {
      "name": "兆豐農場露天溫泉",
      "lat": 23.808617,
      "lng": 121.453973,
      "folder": "泊點",
      "hot_water": 250
    },
    {
      "name": "墾丁石牛溪農場",
      "lat": 21.949637,
      "lng": 120.784712,
      "folder": "泊點",
      "hot_water": 0
    },
    {
      "name": "都蘭派出所",
      "lat": 22.875774,
      "lng": 121.22892,
      "folder": "泊點",
      "hot_water": 0,
      "memo": "2016/12/14"
    },
    {
      "name": "勇男橋下",
      "lat": 22.693457,
      "lng": 121.014949,
      "folder": "泊點",
      "hot_water": 30,
      "memo": "橋下OK"
    },
    {
      "name": "白楊停車場",
      "lat": 24.187088,
      "lng": 121.490062,
      "folder": "泊點",
      "hot_water": -1,
      "memo": "2016/10/01 林明賢"
    },
    {
      "name": "南澳農場",
      "lat": 24.449413,
      "lng": 121.788935,
      "folder": "泊點",
      "hot_water": 0,
      "memo": "收費1車或1帳皆為500元"
    },
    {
      "name": "車城四重溪公共溫泉",
      "lat": 22.094515,
      "lng": 120.747976,
      "folder": "泊點",
      "hot_water": 0,
      "memo": "2017/11/10"
    },
    {
      "name": "石硦童軍營區",
      "lat": 23.396254,
      "lng": 120.57352,
      "folder": "泊點",
      "hot_water": 100,
      "memo": "2016/12/19 林明賢"
    },
    {
      "name": "南化雲山寺",
      "lat": 23.068863,
      "lng": 120.545807,
      "folder": "泊點",
      "hot_water": 0,
      "memo": "6南化台20線51.5K處玉山雲山寺可露營.地點好很清靜有水電熱水澡要費用可記得添油香錢.隨喜即可"
    },
    {
      "name": "拉拉山天源宮",
      "lat": 24.68875,
      "lng": 121.407932,
      "folder": "泊點",
      "hot_water": 0
    },
    {
      "name": "陽明山冷水坑",
      "lat": 25.166006,
      "lng": 121.563889,
      "folder": "泊點",
      "hot_water": 0
    },
    {
      "name": "金山豐漁社區公共浴室",
      "lat": 25.222414,
      "lng": 121.644453,
      "folder": "泊點",
      "hot_water": 0
    },
    {
      "name": "樟原派出所",
      "lat": 23.412937,
      "lng": 121.482649,
      "folder": "泊點",
      "hot_water": 0
    },
    {
      "name": "花蓮港天宮",
      "lat": 24.007374,
      "lng": 121.587152,
      "folder": "泊點",
      "hot_water": 0,
      "memo": "2022/04/07 有回報淋浴間僅供廟方及住宿人員使用,,自行注意"
    },
    {
      "name": "西寶國小",
      "lat": 24.20703,
      "lng": 121.482486,
      "folder": "泊點",
      "hot_water": 0,
      "memo": "2017/07/22"
    },
    {
      "name": "宜蘭大溪國小",
      "lat": 24.936123,
      "lng": 121.886435,
      "folder": "泊點",
      "hot_water": 50,
      "memo": "2016/10/09 林明賢"
    },
    {
      "name": "台灣中油(直營)關原站",
      "lat": 24.1850068,
      "lng": 121.3421073,
      "folder": "泊點",
      "memo": "建議關原加油站下方停車場，沒人干擾，對野營較友善，廁所沒那麼乾淨就是了"
    },
    {
      "name": "金馬隧道",
      "lat": 24.1772366,
      "lng": 121.3714133,
      "folder": "泊點"
    },
    {
      "name": "新白楊服務站",
      "lat": 24.1981077,
      "lng": 121.4330709,
      "folder": "泊點",
      "memo": "設備很完整、有水廁"
    },
    {
      "name": "勸濟堂",
      "lat": 25.1103401,
      "lng": 121.8596543,
      "folder": "泊點",
      "memo": "有水有廁"
    },
    {
      "name": "文武廟停車場",
      "lat": 23.8699693,
      "lng": 120.9269016,
      "folder": "泊點"
    },
    {
      "name": "張學良故居",
      "lat": 24.5760412,
      "lng": 121.1041922,
      "folder": "泊點",
      "memo": "陳泰有 2016/12/11"
    },
    {
      "name": "銀杏森林",
      "lat": 23.6797159,
      "lng": 120.7623682,
      "folder": "泊點"
    },
    {
      "name": "雪山登山口服務站",
      "lat": 24.3858463,
      "lng": 121.2987942,
      "folder": "泊點"
    },
    {
      "name": "谷關遊客中心",
      "lat": 24.2033236,
      "lng": 121.0067764,
      "folder": "泊點",
      "memo": "立體停車場2樓,讚"
    },
    {
      "name": "台中市政府警察局和平分局谷關派出所",
      "lat": 24.2029588,
      "lng": 121.0065173,
      "folder": "泊點"
    },
    {
      "name": "和平谷關郵局豐原19支局",
      "lat": 24.203037,
      "lng": 121.005605,
      "folder": "泊點"
    },
    {
      "name": "龍門漁港安檢所",
      "lat": 25.0237019,
      "lng": 121.936662,
      "folder": "泊點",
      "memo": "有廁"
    },
    {
      "name": "龍鳳漁港",
      "lat": 24.6997509,
      "lng": 120.8582764,
      "folder": "泊點",
      "memo": "2016/10/19"
    },
    {
      "name": "清境農場第一停車場",
      "lat": 24.0443399,
      "lng": 121.1574423,
      "folder": "泊點"
    },
    {
      "name": "合歡山遊客服務中心停車場",
      "lat": 24.1421418,
      "lng": 121.2842801,
      "folder": "泊點"
    },
    {
      "name": "小風口停車場",
      "lat": 24.1616528,
      "lng": 121.2870096,
      "folder": "泊點",
      "memo": "20201003 余小魚"
    },
    {
      "name": "宜蘭縣政府",
      "lat": 24.7309182,
      "lng": 121.7632217,
      "folder": "泊點"
    },
    {
      "name": "羅東運動公園",
      "lat": 24.6849709,
      "lng": 121.7500009,
      "folder": "泊點",
      "memo": "2018/08/28 David Seagal David"
    },
    {
      "name": "點 46",
      "lat": 24.6695896,
      "lng": 121.8164492,
      "folder": "泊點"
    },
    {
      "name": "五峰旗瀑布停車場",
      "lat": 24.8315519,
      "lng": 121.747047,
      "folder": "泊點",
      "memo": "有水有廁,停車場收費 0800-18:00"
    },
    {
      "name": "湯圍溝溫泉公園",
      "lat": 24.8287752,
      "lng": 121.7698968,
      "folder": "泊點",
      "hot_water": 0,
      "memo": "有免費公共浴室及80元溫泉浴池"
    },
    {
      "name": "二萬阿里山停車場",
      "lat": 23.5090894,
      "lng": 120.790601,
      "folder": "泊點",
      "memo": "2017/05/01"
    },
    {
      "name": "仙山靈洞宮停車場",
      "lat": 24.5419702,
      "lng": 120.9482342,
      "folder": "泊點",
      "memo": "20250531"
    },
    {
      "name": "玉泉宮",
      "lat": 25.081775,
      "lng": 121.66487,
      "folder": "泊點",
      "memo": "廟庭三層可露，有鐵棚，廁所衛浴，捐香油錢即可"
    },
    {
      "name": "牡丹社事件紀念公園",
      "lat": 22.1165868,
      "lng": 120.7648767,
      "folder": "泊點",
      "memo": "有水有廁"
    },
    {
      "name": "小雪山莊(有廁)",
      "lat": 24.2794831,
      "lng": 121.0258105,
      "folder": "泊點"
    },
    {
      "name": "嶺頂公園",
      "lat": 23.3382816,
      "lng": 120.5034909,
      "folder": "泊點",
      "memo": "(統茂溫泉會館旁)免費棧板營位十多個.有水有燈有廁"
    },
    {
      "name": "崁頂福安宮",
      "lat": 23.2975856,
      "lng": 120.5029483,
      "folder": "泊點",
      "memo": "可住可露供餐洗熱水澡全免費.撤退時自由貢獻添香油錢."
    },
    {
      "name": "湖濱公園",
      "lat": 23.2990186,
      "lng": 120.5842464,
      "folder": "泊點",
      "memo": "曾文水庫大埔情人湖濱公園有水有電有廁有可洗冷水浴室.電只限廁所充電用.要愛惜使用.停車場大.營地好大.全免費"
    },
    {
      "name": "新光國小",
      "lat": 24.5799355,
      "lng": 121.3032009,
      "folder": "泊點"
    },
    {
      "name": "紫微天后宮",
      "lat": 24.90879,
      "lng": 121.422078,
      "folder": "泊點",
      "memo": "廣場有廁所有水可停2拾幾台車"
    },
    {
      "name": "石門山勞工育樂中心",
      "lat": 24.8190263,
      "lng": 121.2317303,
      "folder": "泊點",
      "memo": "有水有廁"
    },
    {
      "name": "竹崎親水公園",
      "lat": 23.524267,
      "lng": 120.5471835,
      "folder": "泊點",
      "memo": "20241019 台南阿成仔"
    },
    {
      "name": "水火同源停車場",
      "lat": 23.321898,
      "lng": 120.483237,
      "folder": "泊點",
      "memo": "有乾淨廁所，地點良好，"
    },
    {
      "name": "大波池停車場",
      "lat": 23.1203016,
      "lng": 121.2226188,
      "folder": "泊點",
      "memo": "2024/09/16 正佳"
    },
    {
      "name": "台東森林公園",
      "lat": 22.7749421,
      "lng": 121.1477704,
      "folder": "泊點",
      "memo": "有水有廁，有自行車出租，與海濱公園連接，是騎車健行半日遊的好地方。"
    },
    {
      "name": "昆陽休息站",
      "lat": 24.1229757,
      "lng": 121.2725261,
      "folder": "泊點"
    },
    {
      "name": "都歷處本部遊客中心",
      "lat": 23.0203464,
      "lng": 121.3249612,
      "folder": "泊點",
      "memo": "三層階梯大停車場，可停數百輛。有水有廁，停廁所附近較方便使用不必走太遠。對面馬路邊即是有名的都歷派出所(免費露營地)"
    },
    {
      "name": "石門水庫管理中心",
      "lat": 24.811535,
      "lng": 121.247616,
      "folder": "泊點",
      "memo": "2023/4/12 Zoe"
    },
    {
      "name": "旭海大草原停車場",
      "lat": 22.2046016,
      "lng": 120.8848116,
      "folder": "泊點",
      "memo": "有水有廁"
    },
    {
      "name": "鹿谷麒麟潭",
      "lat": 23.7512317,
      "lng": 120.772174,
      "folder": "泊點",
      "memo": "停車場前方50公尺就有盥洗室廁所"
    },
    {
      "name": "砂島貝殼館",
      "lat": 21.912685,
      "lng": 120.8476648,
      "folder": "泊點",
      "memo": "有廁有水"
    },
    {
      "name": "關山夕照泊點",
      "lat": 21.9649324,
      "lng": 120.7196376,
      "folder": "泊點"
    },
    {
      "name": "礁溪龍潭湖",
      "lat": 24.7924496,
      "lng": 121.7399043,
      "folder": "泊點",
      "memo": "有燈有廁所"
    },
    {
      "name": "墾丁大街.麥當勞後面停車場",
      "lat": 21.9463469,
      "lng": 120.7939696,
      "folder": "泊點",
      "memo": "就是國家公園入口處停車場.停過夜要150元,有廁所.晚上燈光很亮.約凌晨三點才關燈"
    },
    {
      "name": "依山閣",
      "lat": 24.811285,
      "lng": 121.240348,
      "folder": "泊點",
      "memo": "2023/4/12 Zoe"
    },
    {
      "name": "鵝鸞鼻大停車場",
      "lat": 21.9047516,
      "lng": 120.8513153,
      "folder": "泊點"
    },
    {
      "name": "後灣小廟",
      "lat": 22.039489,
      "lng": 120.696566,
      "folder": "泊點",
      "memo": "有廁有水 空地小"
    },
    {
      "name": "海口故事園區(封園中...)",
      "lat": 23.582203,
      "lng": 120.14173,
      "folder": "泊點",
      "memo": "有水有廁"
    },
    {
      "name": "源之旅休閒公園",
      "lat": 23.092524,
      "lng": 120.533975,
      "folder": "泊點",
      "memo": "軍史公園"
    },
    {
      "name": "阿里山多林停車場",
      "lat": 23.500479,
      "lng": 120.712395,
      "folder": "泊點",
      "memo": "有水廁"
    },
    {
      "name": "迷糊步道下層停車場",
      "lat": 23.476961,
      "lng": 120.717304,
      "folder": "泊點",
      "memo": "有廁有水電晚上會關…還有請勿在清潔人員下班前搬出機絲"
    },
    {
      "name": "塔塔加停車場",
      "lat": 23.4871918,
      "lng": 120.8893438,
      "folder": "泊點",
      "memo": "有水有廁非假日上班時間請物搬出機絲頭或在三個攝影機前開伙佔位排桌…可以到下層合法簡易炊事區開伙。"
    },
    {
      "name": "東埔吊橋停車場",
      "lat": 23.561023,
      "lng": 120.922371,
      "folder": "泊點",
      "memo": "有水有廁下層有頂有照明燈"
    },
    {
      "name": "朝霧停車場",
      "lat": 23.867119,
      "lng": 120.915569,
      "folder": "泊點",
      "memo": "廁所在碼頭裏面"
    },
    {
      "name": "玄光寺停車場",
      "lat": 23.8520622,
      "lng": 120.9131603,
      "folder": "泊點",
      "memo": "有水有廁"
    },
    {
      "name": "伊達邵遊客中心",
      "lat": 23.8488689,
      "lng": 120.9293881,
      "folder": "泊點",
      "memo": "有水有廁"
    },
    {
      "name": "文武廟後山停車場",
      "lat": 23.869693,
      "lng": 120.928416,
      "folder": "泊點",
      "memo": "有涼亭 廁所要下來蘭園大型車停車場"
    },
    {
      "name": "車埕車站停車場",
      "lat": 23.833776,
      "lng": 120.867128,
      "folder": "泊點",
      "memo": "廁所可在旁邊的真梅館"
    },
    {
      "name": "森林之歌",
      "lat": 23.485913,
      "lng": 120.448749,
      "folder": "泊點",
      "memo": "嘉義市區低調版森林之歌可以看著夜景入眠, 廁所可以到斜對面森林鐵路車庫園區爬個小欄桿就可以到車箱廁所上…一旁還有水龍頭。真沒位置園區正對面也有個小小停車"
    },
    {
      "name": "砂卡礑步道停車場",
      "lat": 24.161265,
      "lng": 121.613129,
      "folder": "泊點",
      "memo": "有水有廁晚上安靜好睡"
    },
    {
      "name": "碧雲寺停車場",
      "lat": 23.3251292,
      "lng": 120.4803067,
      "folder": "泊點",
      "memo": "有水有廁真方便.賞景更佳可過夜地點"
    },
    {
      "name": "火山碧雲寺",
      "lat": 23.3252316,
      "lng": 120.4808585,
      "folder": "泊點",
      "memo": "香客大樓可住宿供素食洗熱水澡全免費.撤退時自由貢獻添油香錢即可"
    },
    {
      "name": "草嶺慶雲宮 大里天公廟",
      "lat": 24.9697997,
      "lng": 121.9249421,
      "folder": "泊點",
      "memo": "可住宿洗熱水澡1人收費200元可去草嶺古道走山海景色優."
    },
    {
      "name": "松山慈惠堂",
      "lat": 25.0365198,
      "lng": 121.5874838,
      "folder": "泊點",
      "memo": "湊滿8人以上.1人收250元正.可住上下床鋪型洗熱水澡.停車全免費.很適合多人家庭旅遊台北市坐捷運或開車市區叭叭走"
    },
    {
      "name": "南苑停車場(會趕人)",
      "lat": 24.8164448,
      "lng": 121.2485098,
      "folder": "泊點",
      "memo": "2023/4/12 Zoe"
    },
    {
      "name": "阿姆坪停車場",
      "lat": 24.814678,
      "lng": 121.303476,
      "folder": "泊點",
      "memo": "2023/4/12 Zoe"
    },
    {
      "name": "停車場",
      "lat": 24.47119,
      "lng": 120.977435,
      "folder": "泊點",
      "memo": "2017/05/15 車露營"
    },
    {
      "name": "成功鎮農會農特產品展售中心",
      "lat": 23.1557233,
      "lng": 121.4000078,
      "folder": "泊點",
      "memo": "成功農會農特產展示中心下停車場，在風雨中的暖處，風雨停車場，有水廁，花海"
    },
    {
      "name": "新月沙灣",
      "lat": 24.8669844,
      "lng": 120.942843,
      "folder": "泊點"
    },
    {
      "name": "七星潭停車場",
      "lat": 24.0301718,
      "lng": 121.6266909,
      "folder": "泊點",
      "memo": "有水有廁景色美海涛相畔"
    },
    {
      "name": "圖書館停車場",
      "lat": 23.0040586,
      "lng": 120.2117157,
      "folder": "泊點",
      "memo": "有免費停車場可直接過夜.公園入口處都有廁有水有涼亭.很好用.^^"
    },
    {
      "name": "石碇淡蘭吊橋停車場",
      "lat": 25.0054695,
      "lng": 121.6517884,
      "folder": "泊點",
      "memo": "2023/05/15 若凡貓"
    },
    {
      "name": "向山行政暨遊客中心",
      "lat": 23.8511451,
      "lng": 120.9021163,
      "folder": "泊點",
      "memo": "2023/12/27"
    },
    {
      "name": "八卦山風景區第一停車場",
      "lat": 24.0774352,
      "lng": 120.5492269,
      "folder": "泊點"
    },
    {
      "name": "伍龍殿",
      "lat": 23.1863402,
      "lng": 120.5609373,
      "folder": "泊點",
      "memo": "2018/01/27 Joy Lin"
    },
    {
      "name": "八仙洞停車場",
      "lat": 23.3939871,
      "lng": 121.4758211,
      "folder": "泊點",
      "memo": "下午五點前收費60元停車費，晚上一夜，有廁有水又有海岸美景"
    },
    {
      "name": "台南縣左鎮鄉岡林國民小學",
      "lat": 23.007361,
      "lng": 120.414557,
      "folder": "泊點",
      "memo": "左鎮二寮岡林國小營地1帳400元洗熱水澡.附近二寮觀日出.大峽谷.308高地景點多.好露點."
    },
    {
      "name": "南化水庫",
      "lat": 23.089444,
      "lng": 120.537778,
      "folder": "泊點",
      "memo": "南化水庫大霸涼亭內可野營.大概可容納10帳內.往下池園去軍武公園有露營地有水廁是高級野營地.^^"
    },
    {
      "name": "金光山厚德紫竹寺",
      "lat": 23.0300946,
      "lng": 120.500721,
      "folder": "泊點",
      "memo": "南化區縣176-2道烏山獼猴區內金光山厚德紫竹寺大廟埕隨你搭帳.前提是和廟方打個招呼告知搭營.有供三餐要告知廟方吃飯人數.搭帳用餐洗熱水澡.費用全部隨喜.真優雅清靜金速希.唯一要注意的是早上六點敲佛鐘.七點打道鼓.可帶小朋友來體驗當兵的作息時間或有賴床習慣的小朋友.家長一定要帶來此地露營幾天.保證小孩會變成每天都很早起床的~^^~"
    },
    {
      "name": "730林道泊點",
      "lat": 24.301122,
      "lng": 121.283224,
      "folder": "泊點"
    },
    {
      "name": "大雪山林道路邊停車場",
      "lat": 24.234534,
      "lng": 120.953515,
      "folder": "泊點",
      "memo": "過隧道右手邊，有廁所"
    },
    {
      "name": "台中市政府警察局和平分局大棟派出所",
      "lat": 24.2410261,
      "lng": 120.9072567,
      "folder": "泊點",
      "memo": "大楝派出所有廁有水免費用"
    },
    {
      "name": "太平洋公園",
      "lat": 23.9663369,
      "lng": 121.6092856,
      "folder": "泊點",
      "memo": "太平洋公園停車場,前南濱公園"
    },
    {
      "name": "南安國小",
      "lat": 24.5786623,
      "lng": 121.8678532,
      "folder": "泊點"
    },
    {
      "name": "千禧曙光紀念園區",
      "lat": 22.6168022,
      "lng": 121.0106888,
      "folder": "泊點",
      "memo": "2016/12/10"
    },
    {
      "name": "屏東縣三地門鄉立圖書館",
      "lat": 22.715686,
      "lng": 120.6542159,
      "folder": "泊點",
      "memo": "山地門公所下，圖書館旁有水廁"
    },
    {
      "name": "伯勞鳥生態展示館/楓港",
      "lat": 22.1896623,
      "lng": 120.6921171,
      "folder": "泊點",
      "memo": "有水 有超乾淨的廁所"
    },
    {
      "name": "四草大眾廟",
      "lat": 23.0197839,
      "lng": 120.1351658,
      "folder": "泊點",
      "memo": "殘障廁所有熱水,夏天蚊子多"
    },
    {
      "name": "福興宮",
      "lat": 23.8016155,
      "lng": 120.4605591,
      "folder": "泊點"
    },
    {
      "name": "廣福宮",
      "lat": 23.7972059,
      "lng": 120.464692,
      "folder": "泊點"
    },
    {
      "name": "大眾爺祠",
      "lat": 23.8286742,
      "lng": 120.7798489,
      "folder": "泊點"
    },
    {
      "name": "渚橋休息區",
      "lat": 22.8615169,
      "lng": 121.2036359,
      "folder": "泊點"
    },
    {
      "name": "金樽遊憩區",
      "lat": 22.9454759,
      "lng": 121.2801149,
      "folder": "泊點",
      "memo": "2024/11/16 陳真"
    },
    {
      "name": "十分旅遊服務中心",
      "lat": 25.0473793,
      "lng": 121.7829325,
      "folder": "泊點",
      "memo": "有水有廁"
    },
    {
      "name": "竹圍碼頭",
      "lat": 25.1191502,
      "lng": 121.2429489,
      "folder": "泊點"
    },
    {
      "name": "大園濱海遊憇區服務中心",
      "lat": 25.1142577970954,
      "lng": 121.242617033422,
      "folder": "泊點"
    },
    {
      "name": "桃園國際棒球場",
      "lat": 25.002054,
      "lng": 121.201789,
      "folder": "泊點",
      "memo": "桃園國際棒球場旁，有水有廁有停車場"
    },
    {
      "name": "梨山遊客中心",
      "lat": 24.254731,
      "lng": 121.251159,
      "folder": "泊點",
      "memo": "有水有廁"
    },
    {
      "name": "福壽山農場旅遊服務中心",
      "lat": 24.244908,
      "lng": 121.245787,
      "folder": "泊點",
      "memo": "2016/11/14"
    },
    {
      "name": "興達港",
      "lat": 22.8624224,
      "lng": 120.2057398,
      "folder": "泊點",
      "memo": "旁邊三清宮有廁所"
    },
    {
      "name": "三清宮",
      "lat": 22.8637009,
      "lng": 120.194032,
      "folder": "泊點",
      "memo": "有廁所"
    },
    {
      "name": "龜山步道入口",
      "lat": 22.0496813,
      "lng": 120.7039822,
      "folder": "泊點",
      "memo": "私房景點"
    },
    {
      "name": "台南二寮觀日亭",
      "lat": 22.9956107,
      "lng": 120.4101207,
      "folder": "泊點",
      "memo": "二寮日出，新開放觀日平台夠大"
    },
    {
      "name": "吊橋停車場",
      "lat": 23.005567,
      "lng": 120.431105,
      "folder": "泊點"
    },
    {
      "name": "魚路古道",
      "lat": 25.1516644,
      "lng": 121.5621472,
      "folder": "泊點"
    },
    {
      "name": "大武鄉第一停車場",
      "lat": 22.3624101,
      "lng": 120.9066166,
      "folder": "泊點"
    },
    {
      "name": "大武鄉金龍湖",
      "lat": 22.3525739,
      "lng": 120.8900169,
      "folder": "泊點",
      "memo": "2018/03/19 施盈廷"
    },
    {
      "name": "蝙蝠洞公園",
      "lat": 25.1263144,
      "lng": 121.8321156,
      "folder": "泊點",
      "memo": "蝙蝠洞公園 北部濱海公路海邊理想車宿點 夜晚燈光明亮不用自己點燈，廁所有自來水 旁邊正好是公路隧道 少了車水馬龍吵雜 還有兒童遊戲場"
    },
    {
      "name": "新北市政府警察局瑞芳分局水湳洞派出所",
      "lat": 25.1216469,
      "lng": 121.8619442,
      "folder": "泊點",
      "memo": "水楠洞旅遊服務中心"
    },
    {
      "name": "東埔停車場",
      "lat": 23.5615372,
      "lng": 120.9227398,
      "folder": "泊點",
      "memo": "2024/11/30 能慧"
    },
    {
      "name": "鰲峰山觀景平台",
      "lat": 24.2698038,
      "lng": 120.5842299,
      "folder": "泊點",
      "memo": "清水鰲峰山公園，這個地點不錯喔！有廁所很乾淨，晚上有燈，氣氛不錯，早上可野放小孩，遊樂設施超多～還有烤肉專區。"
    },
    {
      "name": "天德堂停車場",
      "lat": 24.8668429,
      "lng": 120.9797029,
      "folder": "泊點",
      "memo": "有水有廁,景觀不錯"
    },
    {
      "name": "高雄市忠烈祠",
      "lat": 22.6263091,
      "lng": 120.2739249,
      "folder": "泊點",
      "memo": "壽山忠烈祠最上面風景好碼頭區夜景有廁所有警察巡邏"
    },
    {
      "name": "水楠洞旅遊服務中心",
      "lat": 25.1218827,
      "lng": 121.8616097,
      "folder": "泊點",
      "memo": "有廁所，景色都很美"
    },
    {
      "name": "朝日亭",
      "lat": 25.1120559,
      "lng": 121.859571,
      "folder": "泊點",
      "memo": "朝日亭下方停車場，即勸濟堂後面超大停車場-離茶壺山步道入口很近"
    },
    {
      "name": "田尾公路花園停車場",
      "lat": 23.895367,
      "lng": 120.531047,
      "folder": "泊點",
      "memo": "假日不收費,車床點不錯"
    },
    {
      "name": "清水岩營地",
      "lat": 23.884604,
      "lng": 120.60891,
      "folder": "泊點",
      "memo": "2016/12/22"
    },
    {
      "name": "新都生態公園",
      "lat": 24.173512,
      "lng": 120.7296894,
      "folder": "泊點",
      "memo": "有水有廁 環境清幽"
    },
    {
      "name": "文德宮",
      "lat": 24.042573,
      "lng": 120.547004,
      "folder": "泊點",
      "memo": "彰化花壇文德宮全省唯一官封戴烏紗冒的福正神.很靈驗的。歡迎社團好友前來參拜~重點是交通便利.環境清幽。雖道路對面有社區.但不吵雜。南面巷道也有一家小7的有厕所.但廟方亦有水厕間的.生话活機能完全，是車床族的天地。5分鐘到百年古蹟虎山嚴.10分鐘到八卦山大佛及彰化扇形古蹟車庫及各彰化小吃點。廟附近有家土雞城黑公雞口味讚.非常有名氣的。當然廟在山腳路走花秀路約25分鐘可暢遊鹿港小鎮。往南大村員林也近約"
    },
    {
      "name": "龍洞灣岬步道南停車場",
      "lat": 25.1052011,
      "lng": 121.9220129,
      "folder": "泊點",
      "memo": "2023/4/15 BOX"
    },
    {
      "name": "來吉部落廚房",
      "lat": 23.5269571,
      "lng": 120.7439129,
      "folder": "泊點",
      "memo": "來吉部落廚房是很有名的餐廳 沒有天天營業 需先預定,有上層,下層停車場"
    },
    {
      "name": "金龍山日出觀景台",
      "lat": 23.9037705,
      "lng": 120.9064422,
      "folder": "泊點",
      "memo": "沒有廁所 常有大景 但假日晚上常有睡不著的遊客 半夜來等日出 會很吵"
    },
    {
      "name": "桃園巨蛋邊停車場",
      "lat": 24.9944089,
      "lng": 121.3227269,
      "folder": "泊點"
    },
    {
      "name": "水尾漁港",
      "lat": 25.2225757,
      "lng": 121.6469121,
      "folder": "泊點",
      "memo": "2016/10/04"
    },
    {
      "name": "東興宮",
      "lat": 25.0204758,
      "lng": 121.9503784,
      "folder": "泊點",
      "memo": "停車場有水有廁"
    },
    {
      "name": "高美濕地遊客中心和停車場",
      "lat": 24.3023015,
      "lng": 120.547245,
      "folder": "泊點",
      "memo": "2016/12/17"
    },
    {
      "name": "瑞太遊客中心停車場",
      "lat": 23.5441261,
      "lng": 120.6878158,
      "folder": "泊點",
      "memo": "2020/12/06 Paul Chen"
    },
    {
      "name": "金字橋",
      "lat": 25.0609029,
      "lng": 121.8234071,
      "folder": "泊點",
      "memo": "地點:新北市瑞芳三貂嶺車站附近，金字橋下 ，漁寮路口"
    },
    {
      "name": "金山寺",
      "lat": 25.1111381,
      "lng": 121.8386812,
      "folder": "泊點",
      "memo": "停車場廁所很乾淨"
    },
    {
      "name": "青雲殿",
      "lat": 25.1161699,
      "lng": 121.8414006,
      "folder": "泊點"
    },
    {
      "name": "猴硐媒礦園區停車場",
      "lat": 25.0852056679511,
      "lng": 121.826266050339,
      "folder": "泊點",
      "memo": "有水有廁"
    },
    {
      "name": "翠峰雪季車輛管制哨",
      "lat": 24.1067703,
      "lng": 121.1990609,
      "folder": "泊點",
      "memo": "泊點：台14甲18k翠峰雪季車輛管制哨，舊管制哨停車場，台14甲17k翠峰停車場，目前施工停用中，委外經營施工，可能105年10月後才會重新開放使用"
    },
    {
      "name": "明湖水漾旁停車場",
      "lat": 24.5853375913671,
      "lng": 120.88674556464,
      "folder": "泊點",
      "memo": "[明德水庫]明湖水漾旁停車場"
    },
    {
      "name": "客家大院停車場",
      "lat": 24.4712899,
      "lng": 120.8044283,
      "folder": "泊點",
      "memo": "[快適。車中泊]"
    },
    {
      "name": "獅潭義民廟",
      "lat": 24.5424713,
      "lng": 120.921559,
      "folder": "泊點",
      "memo": "快適。車中泊"
    },
    {
      "name": "枋寮漁港小型車停車場",
      "lat": 22.3623212,
      "lng": 120.594068,
      "folder": "泊點",
      "memo": "[林明賢 2016.5.30]"
    },
    {
      "name": "月影潭心",
      "lat": 23.465461,
      "lng": 120.480285,
      "folder": "泊點",
      "memo": "有水有廁"
    },
    {
      "name": "濟福宮停車場",
      "lat": 23.475137,
      "lng": 120.488016,
      "folder": "泊點",
      "memo": "有水廁"
    },
    {
      "name": "三信觀景亭",
      "lat": 23.468512,
      "lng": 120.477041,
      "folder": "泊點",
      "memo": "有水廁"
    },
    {
      "name": "竹35線6K",
      "lat": 24.6856485759429,
      "lng": 121.138671375811,
      "folder": "泊點",
      "memo": "泊點：新竹縣橫山鄉豐興國小，竹35約6k處"
    },
    {
      "name": "五指山灶君堂",
      "lat": 24.6423962,
      "lng": 121.0896725,
      "folder": "泊點",
      "memo": "泊點：新竹縣北埔鄉五指山灶君堂前停車場"
    },
    {
      "name": "天送埤-福山寺廣場",
      "lat": 24.6610364,
      "lng": 121.6228339,
      "folder": "泊點",
      "memo": "要去宜蘭三星鄉的車友們 可停福山寺後面停車場，有廁所 停車場不用錢，景點有拳頭山步道，清水地熱。"
    },
    {
      "name": "將軍漁港管理站",
      "lat": 23.2105715,
      "lng": 120.0880955,
      "folder": "泊點",
      "memo": "有公廁，有賣食物，缺點是有魚船的柴油味"
    },
    {
      "name": "布洛灣遊憩區",
      "lat": 24.1707048,
      "lng": 121.5726348,
      "folder": "泊點",
      "memo": "2017/01/01 蔡麗真"
    },
    {
      "name": "綠水遊客中心",
      "lat": 24.178582,
      "lng": 121.5079576,
      "folder": "泊點",
      "memo": "有厠有水，免費"
    },
    {
      "name": "北埔冷泉停車場",
      "lat": 24.6629944,
      "lng": 121.0724295,
      "folder": "泊點",
      "memo": "泊點：新竹縣北埔鄉北埔冷泉停車場"
    },
    {
      "name": "青年嶺環狀步道停車場",
      "lat": 23.538913,
      "lng": 120.665461,
      "folder": "泊點",
      "memo": "泊點：梅山瑞里青年嶺步道停車場"
    },
    {
      "name": "張家堡森林梅園",
      "lat": 23.667544,
      "lng": 120.842603,
      "folder": "泊點",
      "memo": "一人250元"
    },
    {
      "name": "大埔情人公園",
      "lat": 23.3019595,
      "lng": 120.5894235,
      "folder": "泊點",
      "memo": "這個點適合秋冬 晚上小黑蚊特多 遊客中心廁所很乾淨"
    },
    {
      "name": "中正露營區",
      "lat": 24.1727892,
      "lng": 120.7845869,
      "folder": "泊點",
      "memo": "有水有廁,熱水澡一人60元"
    },
    {
      "name": "台糖屏東量販店",
      "lat": 22.662988,
      "lng": 120.488917,
      "folder": "泊點",
      "memo": "台糖量販店旁的藍球場，有廁所，也很安靜"
    },
    {
      "name": "櫻花陵園營地",
      "lat": 24.8235905,
      "lng": 121.7034022,
      "folder": "泊點",
      "memo": "李哲 要看百萬夜景。没做虧心事。首推樱花陵園。水。電。厠。服務中心熱水洗澡全免費。標高75o公尺。現在晚上涼爽2o至24度"
    },
    {
      "name": "豐賓山莊",
      "lat": 23.574459,
      "lng": 120.747681,
      "folder": "泊點",
      "memo": "2018/04/04 據傳已遭林務局禁止經營露營項目"
    },
    {
      "name": "佳洛水叉路口停車場",
      "lat": 21.9895467,
      "lng": 120.8417612,
      "folder": "泊點",
      "memo": "介紹個好地方…來墾丁必到景點-滿州往佳洛水叉路口停車場.有廁所,低調車宿應該ok,在吊橋口有間-“阿水沖浪”，餐點+飲料.量多味美.老闆熱心公益（有EMT證照志工）.體驗沖浪樂趣找他就對了～"
    },
    {
      "name": "大潭埤旺萊公園",
      "lat": 22.957269,
      "lng": 120.340811,
      "folder": "泊點",
      "memo": "2022/10/10 james chang"
    },
    {
      "name": "笆崎休息區停車場",
      "lat": 23.731666,
      "lng": 121.5582973,
      "folder": "泊點",
      "memo": "有水有廁,日出,好點"
    },
    {
      "name": "梅山遊客中心",
      "lat": 23.2633569,
      "lng": 120.825997,
      "folder": "泊點",
      "memo": "有停車場有露營區,有水有廁"
    },
    {
      "name": "外澳火車站",
      "lat": 24.883703,
      "lng": 121.845757,
      "folder": "泊點",
      "memo": "頭城外澳火車站附近的舊營區停車場，有廁所~有水~有沙灘可以灘釣"
    },
    {
      "name": "翠峰湖停車場",
      "lat": 24.5107138,
      "lng": 121.6078028,
      "folder": "泊點",
      "memo": "許明欽 2016/9/19"
    },
    {
      "name": "明池山莊停車場",
      "lat": 24.6533104,
      "lng": 121.4699336,
      "folder": "泊點",
      "memo": "明池停車場，不會趕人，有廁所及遊客中心可拿飲水。聽說翠峰湖會趕人，鳩澤溫泉停車場也粉適合野營，太平山停車場不確定是否有廁所"
    },
    {
      "name": "三坑自然生態公園",
      "lat": 24.8389549,
      "lng": 121.2573802,
      "folder": "泊點",
      "memo": "地點：桃園。龍潭。"
    },
    {
      "name": "霧社加油站下方停車場",
      "lat": 24.0185129,
      "lng": 121.1313137,
      "folder": "泊點",
      "memo": "凡凡 2016/9/17"
    },
    {
      "name": "鹽粿山土地公廟(大凍山登山口) 注意.大車上不去",
      "lat": 23.3185489,
      "lng": 120.5097012,
      "folder": "泊點",
      "memo": "李朝發 2016/9/18"
    },
    {
      "name": "二行社區活動中心",
      "lat": 22.9159737,
      "lng": 120.2238715,
      "folder": "泊點",
      "memo": "box.triper 2016/9.19"
    },
    {
      "name": "保安火車站",
      "lat": 22.932952,
      "lng": 120.231635,
      "folder": "泊點",
      "memo": "box.triper 2016/9/19"
    },
    {
      "name": "台南市忠烈祠停車場",
      "lat": 22.9809265,
      "lng": 120.2107697,
      "folder": "泊點",
      "memo": "不錯的車泊點,對面有麥當勞24H,Starbucks咖啡廳,向西走一小段路也有摩斯漢寶.,近大東夜市,大同路.健康路沿線有很多美食品嚐,沿竹溪東側道路也都可泊車,較安靜."
    },
    {
      "name": "彰化市景觀公園",
      "lat": 24.1013544,
      "lng": 120.5541225,
      "folder": "泊點",
      "hot_water": 2016,
      "memo": "有水有廁"
    },
    {
      "name": "合流露營地",
      "lat": 24.177137,
      "lng": 121.5137039,
      "folder": "泊點",
      "memo": "2016/10/01 林明賢"
    },
    {
      "name": "迎曦湖",
      "lat": 23.0892487,
      "lng": 120.2860048,
      "folder": "泊點",
      "memo": "東北側,東南側有停車場,有廁有水"
    },
    {
      "name": "大溪中正公園",
      "lat": 24.8838835,
      "lng": 121.2848253,
      "folder": "泊點",
      "memo": "2016/10/09"
    },
    {
      "name": "大溪鎮多目標體育館",
      "lat": 24.883466,
      "lng": 121.287068,
      "folder": "泊點",
      "memo": "2016/10/09"
    },
    {
      "name": "三貂角碉堡",
      "lat": 25.0172714,
      "lng": 121.9978956,
      "folder": "泊點",
      "memo": "三貂角碉堡"
    },
    {
      "name": "滬尾礮臺",
      "lat": 25.179218,
      "lng": 121.429389,
      "folder": "泊點"
    },
    {
      "name": "永和山水庫",
      "lat": 24.6603617,
      "lng": 120.9232053,
      "folder": "泊點",
      "memo": "2016/10/19"
    },
    {
      "name": "竹南運動公園",
      "lat": 24.6895847,
      "lng": 120.8881841,
      "folder": "泊點",
      "memo": "竹南運動公園停車場，有廁所。"
    },
    {
      "name": "新北市忠烈祠",
      "lat": 25.1789569,
      "lng": 121.4282776,
      "folder": "泊點"
    },
    {
      "name": "一滴水紀念館",
      "lat": 25.178206,
      "lng": 121.430772,
      "folder": "泊點"
    },
    {
      "name": "文峰遊客中心",
      "lat": 23.517185,
      "lng": 120.593903,
      "folder": "泊點",
      "memo": "Terry Wu 2016/10/29"
    },
    {
      "name": "太興岩步道停車場",
      "lat": 23.536365,
      "lng": 120.635289,
      "folder": "泊點",
      "memo": "Terry Wu 2016/10/29"
    },
    {
      "name": "圓潭自然生態園區停車場",
      "lat": 23.5294985,
      "lng": 120.6595534,
      "folder": "泊點",
      "memo": "Terry Wu 2016/10/29"
    },
    {
      "name": "源興宮",
      "lat": 23.5398139,
      "lng": 120.67352,
      "folder": "泊點"
    },
    {
      "name": "貓狸山公園停車場",
      "lat": 24.5548626,
      "lng": 120.808884,
      "folder": "泊點",
      "memo": "2016/10/30 林明賢"
    },
    {
      "name": "紫雲寺第二停車場",
      "lat": 23.461899,
      "lng": 120.594526,
      "folder": "泊點",
      "memo": "2016/10/31"
    },
    {
      "name": "半天岩大停車場",
      "lat": 23.4614945,
      "lng": 120.5960494,
      "folder": "泊點",
      "memo": "2016/10/31"
    },
    {
      "name": "新豐紅樹林生態保護區",
      "lat": 24.9096548,
      "lng": 120.9719875,
      "folder": "泊點",
      "memo": "李昭輝 2016/10/29"
    },
    {
      "name": "宜蘭縣蘇澳鎮朝陽社區發展協會",
      "lat": 24.46093,
      "lng": 121.819634,
      "folder": "泊點",
      "memo": "林明賢 2016/10/26"
    },
    {
      "name": "貢寮區環保公園",
      "lat": 25.020984,
      "lng": 121.9053677,
      "folder": "泊點",
      "memo": "2016/11/07"
    },
    {
      "name": "錦屏美人湯館",
      "lat": 24.670675,
      "lng": 121.208192,
      "folder": "泊點",
      "memo": "有停車場"
    },
    {
      "name": "虎門巷",
      "lat": 24.0285244,
      "lng": 121.1635072,
      "folder": "泊點",
      "memo": "2016/11/09"
    },
    {
      "name": "福壽山農場停車場",
      "lat": 24.2445911,
      "lng": 121.2445414,
      "folder": "泊點",
      "memo": "有水有廁"
    },
    {
      "name": "永安漁港",
      "lat": 24.9882923,
      "lng": 121.0135621,
      "folder": "泊點",
      "memo": "2016/11/25"
    },
    {
      "name": "風情海岸",
      "lat": 24.7786497,
      "lng": 120.9144545,
      "folder": "泊點",
      "memo": "2016/11/25"
    },
    {
      "name": "苑港濱海公園",
      "lat": 24.4591001,
      "lng": 120.6472682,
      "folder": "泊點",
      "memo": "2024/05/14 張英哲"
    },
    {
      "name": "池和宮 池府王爺廟",
      "lat": 24.9100699,
      "lng": 120.9762331,
      "folder": "泊點",
      "memo": "2016/11/25"
    },
    {
      "name": "埔里中油台一站",
      "lat": 23.9815695,
      "lng": 121.0126421,
      "folder": "泊點",
      "memo": "有熱水,有7-11,有停車場"
    },
    {
      "name": "碧湖山觀光茶園",
      "lat": 23.5696717,
      "lng": 120.6219515,
      "folder": "泊點",
      "memo": "2018/02/25 Joy Lin"
    },
    {
      "name": "特富野古道",
      "lat": 23.4840775,
      "lng": 120.8302324,
      "folder": "泊點",
      "memo": "楊黑寶覺得很新鮮。"
    },
    {
      "name": "小風口大停車場",
      "lat": 24.1623727,
      "lng": 121.2880325,
      "folder": "泊點",
      "memo": "20201003 余小魚"
    },
    {
      "name": "天長地久",
      "lat": 23.4395453,
      "lng": 120.6072691,
      "folder": "泊點",
      "memo": "2016/11/30陳大大天長地久橋下，可避雨，有廁所...."
    },
    {
      "name": "貓狸山公園停車場",
      "lat": 24.5548626,
      "lng": 120.808884,
      "folder": "泊點",
      "memo": "林明賢2016/11/27今日再來介绍苗栗市最夸最熱鬧的唯一景點，猫狸山公園及舊山線鐵道功維敍隧道~當然此點半天內可逛完，例日是車多人多，廁所也粉多，墜道內相機多的啦~隧道內可是天然冷氣，是山泉水循環的關係，粉冷哦!夏季來此可消暑啦~"
    },
    {
      "name": "貓貍山公園",
      "lat": 24.556645,
      "lng": 120.8121523,
      "folder": "泊點",
      "memo": "2016/11/27 林明賢"
    },
    {
      "name": "港南濱海風景區",
      "lat": 24.822819,
      "lng": 120.910339,
      "folder": "泊點",
      "memo": "2022/09/26 李淑芬"
    },
    {
      "name": "新竹南寮舊漁港",
      "lat": 24.8498061,
      "lng": 120.9290028,
      "folder": "泊點",
      "memo": "2016/11/25 廖志祥"
    },
    {
      "name": "石門古戰場",
      "lat": 22.1124952,
      "lng": 120.7614686,
      "folder": "泊點"
    },
    {
      "name": "奧萬大停車場",
      "lat": 23.9536214,
      "lng": 121.1758974,
      "folder": "泊點",
      "memo": "有水廁"
    },
    {
      "name": "碧湖山驛站",
      "lat": 23.569599,
      "lng": 120.621923,
      "folder": "泊點",
      "memo": "2016/11/22 陳希望"
    },
    {
      "name": "觀音寺",
      "lat": 24.665312,
      "lng": 121.098512,
      "folder": "泊點",
      "memo": "2016/12/01 潘象川"
    },
    {
      "name": "汶水老街停車場",
      "lat": 24.4563285,
      "lng": 120.8764538,
      "folder": "泊點",
      "memo": "2016/12/4 陳奕廷"
    },
    {
      "name": "旭海溫泉",
      "lat": 22.1900525,
      "lng": 120.8777833,
      "folder": "泊點"
    },
    {
      "name": "鳩之澤停車場",
      "lat": 24.5457179,
      "lng": 121.5087864,
      "folder": "泊點",
      "memo": "泡湯至19:00"
    },
    {
      "name": "縣立憲明國小",
      "lat": 24.6615049,
      "lng": 121.6189375,
      "folder": "泊點",
      "memo": "2018/07/02 據報只開放週六"
    },
    {
      "name": "有木國小",
      "lat": 24.853769,
      "lng": 121.436958,
      "folder": "泊點",
      "memo": "http://www.ymps.ntpc.edu.tw/editor_doc/editor_docview.asp?id={F04F8164-7FC2-4CFA-B587-899958E4B5A0}"
    },
    {
      "name": "福連國小",
      "lat": 25.0167967,
      "lng": 121.988721,
      "folder": "泊點",
      "memo": "位於新北市福隆的福連國小，後面環山前面是卯澳灣。福連國小以無敵海景出名，校內每一名小朋友畢業時都必須泳渡經過1200公尺的卯澳灣，才能從校長手裡領到畢業證書，每一位都是「水中蛟龍」相當特別。假日不時可見民眾、淺水愛好者前往戲水。這裡還有提供開放式淋浴，夏季時特別受到民眾喜愛。唯需特別注意校內露營場地沒有提供熱水、接電以及烤肉，不過無敵海景、徐徐海風就是天賜的好美優勢。"
    },
    {
      "name": "武塔國小露營區",
      "lat": 24.4446283,
      "lng": 121.7782903,
      "folder": "泊點",
      "memo": "▲武塔國小校內可以看見火車開過，讓鐵道迷超滿足。（圖／翻攝自宜蘭就是電影）武塔國小"
    },
    {
      "name": "濂洞灣公路停車場",
      "lat": 25.1248681,
      "lng": 121.8620494,
      "folder": "泊點",
      "memo": "2016/12/04"
    },
    {
      "name": "金崙火車站前",
      "lat": 22.5311244,
      "lng": 120.9667414,
      "folder": "泊點",
      "memo": "2016/12/04 謝建中"
    },
    {
      "name": "左鎮旅遊服務中心",
      "lat": 23.007127,
      "lng": 120.41478,
      "folder": "泊點",
      "memo": "2020/03/05"
    },
    {
      "name": "觸口遊客中心",
      "lat": 23.4462682,
      "lng": 120.5852562,
      "folder": "泊點",
      "memo": "2016/12/05"
    },
    {
      "name": "黃金瀑布停車場 無水廁 不收費",
      "lat": 25.1179104,
      "lng": 121.8615666,
      "folder": "泊點",
      "memo": "無水廁"
    },
    {
      "name": "林默娘公園東側停車場",
      "lat": 22.9926197,
      "lng": 120.1574171,
      "folder": "泊點",
      "memo": "2016/12/06 謝建中"
    },
    {
      "name": "二鯤鯓砲臺(億載金城)",
      "lat": 22.987883,
      "lng": 120.159255,
      "folder": "泊點",
      "memo": "2020/03/04 LEO"
    },
    {
      "name": "二延平步道",
      "lat": 23.4175793,
      "lng": 120.650847,
      "folder": "泊點",
      "memo": "2023/3/3 李美珍"
    },
    {
      "name": "板頭厝車站",
      "lat": 23.56514,
      "lng": 120.322444,
      "folder": "泊點",
      "memo": "2016/12/07"
    },
    {
      "name": "白馬亭",
      "lat": 23.2918986,
      "lng": 120.6020703,
      "folder": "泊點",
      "memo": "2016/12/07"
    },
    {
      "name": "壽山動物園停車場",
      "lat": 22.6348202,
      "lng": 120.2803064,
      "folder": "泊點",
      "memo": "2016/12/07"
    },
    {
      "name": "台東成功漁港",
      "lat": 23.0980371,
      "lng": 121.3810975,
      "folder": "泊點",
      "memo": "2016/12/13 Arm Pan"
    },
    {
      "name": "金光山厚德紫竹寺",
      "lat": 23.0262471,
      "lng": 120.4889874,
      "folder": "泊點",
      "memo": "2016/12/12 林明賢"
    },
    {
      "name": "五峰山龍湖寺",
      "lat": 23.026475,
      "lng": 120.4968313,
      "folder": "泊點",
      "memo": "2025/08/18 吳慶麟"
    },
    {
      "name": "水往上流遊憩區",
      "lat": 22.8684912,
      "lng": 121.2181117,
      "folder": "泊點",
      "memo": "2016/12/14 FC Chen"
    },
    {
      "name": "菜寮化石館",
      "lat": 23.0645727,
      "lng": 120.3890812,
      "folder": "泊點",
      "memo": "2016/12/14 林明賢"
    },
    {
      "name": "噶瑪噶居寺",
      "lat": 23.0532428,
      "lng": 120.398826,
      "folder": "泊點",
      "memo": "2016/12/12 林明賢"
    },
    {
      "name": "九龍大榕樹",
      "lat": 23.8286129,
      "lng": 120.4489129,
      "folder": "泊點",
      "memo": "2016/12/10 李朝發野營車床 有水廁衛浴男女各一間 到西螺老街野遊 不錯的一個點 讓各位車友參考"
    },
    {
      "name": "天送埤火車站",
      "lat": 24.6625355,
      "lng": 121.6197571,
      "folder": "泊點",
      "memo": "2016/12/10"
    },
    {
      "name": "善化啤酒廠",
      "lat": 23.1296969,
      "lng": 120.3184879,
      "folder": "泊點",
      "memo": "2016/12/10 林明賢"
    },
    {
      "name": "三仙臺遊客中心",
      "lat": 23.1230214,
      "lng": 121.4078415,
      "folder": "泊點",
      "memo": "有廁所，廁所裡有洗澡的地方。"
    },
    {
      "name": "美堤河濱公園",
      "lat": 25.0752299,
      "lng": 121.5607608,
      "folder": "泊點",
      "memo": "2023/04/06"
    },
    {
      "name": "碧山路停車場",
      "lat": 25.0989063,
      "lng": 121.5880062,
      "folder": "泊點",
      "memo": "2016/12/10"
    },
    {
      "name": "福順宮",
      "lat": 23.882096,
      "lng": 120.9440771,
      "folder": "泊點",
      "memo": "2016/12/10"
    },
    {
      "name": "蝴蝶園",
      "lat": 23.8503949,
      "lng": 120.9362165,
      "folder": "泊點",
      "memo": "Chin Chan Huang 九族文化村就覽車站旁蝴蝶園停車場"
    },
    {
      "name": "宜蘭縣政府警察局太平山檢查哨",
      "lat": 24.4972255,
      "lng": 121.5353447,
      "folder": "泊點",
      "memo": "2016/12/12"
    },
    {
      "name": "武陵遊客中心停車場",
      "lat": 24.3532399,
      "lng": 121.3101223,
      "folder": "泊點",
      "memo": "2017/03/12"
    },
    {
      "name": "文康舘下停車場",
      "lat": 24.3552191,
      "lng": 121.3119176,
      "folder": "泊點",
      "memo": "2016/12/15"
    },
    {
      "name": "岡林教會",
      "lat": 23.0107572,
      "lng": 120.4168658,
      "folder": "泊點",
      "memo": "2016/12/16"
    },
    {
      "name": "富寮里隘寮社區聖母宮",
      "lat": 23.9777656,
      "lng": 120.7122085,
      "folder": "泊點",
      "memo": "2016/12/17"
    },
    {
      "name": "守望相助隊廣場",
      "lat": 23.6014255,
      "lng": 120.8847946,
      "folder": "泊點",
      "memo": "2016/12/17"
    },
    {
      "name": "環保公園",
      "lat": 23.9783321,
      "lng": 120.6940037,
      "folder": "泊點",
      "memo": "2016/12/17 段傳仁"
    },
    {
      "name": "豐柏廣場",
      "lat": 23.8226807,
      "lng": 120.6190832,
      "folder": "泊點",
      "memo": "2016/12/18 林明賢"
    },
    {
      "name": "旗津風車公園",
      "lat": 22.5883126,
      "lng": 120.2843378,
      "folder": "泊點",
      "memo": "2016/12/18"
    },
    {
      "name": "大崗山自然生態園區",
      "lat": 22.87146,
      "lng": 120.347414,
      "folder": "泊點"
    },
    {
      "name": "國立中山大學停車場",
      "lat": 22.623626,
      "lng": 120.2629378,
      "folder": "泊點",
      "memo": "2018/02/14 ‎梅夫人"
    },
    {
      "name": "十八羅漢山服務區",
      "lat": 22.9506628,
      "lng": 120.641705,
      "folder": "泊點",
      "memo": "2016/12/20"
    },
    {
      "name": "旗津踩風大道",
      "lat": 22.6042129,
      "lng": 120.272567,
      "folder": "泊點"
    },
    {
      "name": "旗津海岸公園",
      "lat": 22.6089102,
      "lng": 120.2686858,
      "folder": "泊點",
      "memo": "20250316 張英哲"
    },
    {
      "name": "月世界地景公園",
      "lat": 22.8860021,
      "lng": 120.3889836,
      "folder": "泊點"
    },
    {
      "name": "磯崎海水浴場",
      "lat": 23.7009222,
      "lng": 121.5495254,
      "folder": "泊點",
      "memo": "露營,玩水,洗澡"
    },
    {
      "name": "磯崎遊憩區停車場",
      "lat": 23.696721,
      "lng": 121.550778,
      "folder": "泊點"
    },
    {
      "name": "羅山瀑布停車場",
      "lat": 23.1830806,
      "lng": 121.2919118,
      "folder": "泊點"
    },
    {
      "name": "保安寺",
      "lat": 23.6725259,
      "lng": 121.4348779,
      "folder": "泊點"
    },
    {
      "name": "北濱公園",
      "lat": 23.9759745,
      "lng": 121.6167775,
      "folder": "泊點",
      "memo": "2017/01/01"
    },
    {
      "name": "佐倉步道",
      "lat": 24.0185644,
      "lng": 121.5765521,
      "folder": "泊點",
      "memo": "2019/05/17 金太陽"
    },
    {
      "name": "潭南停車場",
      "lat": 23.9240804,
      "lng": 121.5059936,
      "folder": "泊點"
    },
    {
      "name": "七星潭",
      "lat": 24.0315314,
      "lng": 121.6267365,
      "folder": "泊點"
    },
    {
      "name": "合流停車場",
      "lat": 24.1779336,
      "lng": 121.5127748,
      "folder": "泊點"
    },
    {
      "name": "金馬隧道口",
      "lat": 24.1770845,
      "lng": 121.3723719,
      "folder": "泊點"
    },
    {
      "name": "八通關古道登山口",
      "lat": 23.3289391,
      "lng": 121.2348658,
      "folder": "泊點"
    },
    {
      "name": "外木山濱海廊帶",
      "lat": 25.1641222,
      "lng": 121.7225879,
      "folder": "泊點"
    },
    {
      "name": "65高地停車場",
      "lat": 25.1450594,
      "lng": 121.7985538,
      "folder": "泊點",
      "memo": "有水廁 廁所夜間沒燈"
    },
    {
      "name": "暖東峽谷停車場",
      "lat": 25.0768149,
      "lng": 121.7547946,
      "folder": "泊點",
      "memo": "有水廁"
    },
    {
      "name": "石盤谷步道停車場",
      "lat": 23.598392,
      "lng": 120.746023,
      "folder": "泊點",
      "memo": "2019/0501"
    },
    {
      "name": "鰲鼓溼地森林園區",
      "lat": 23.507092,
      "lng": 120.156939,
      "folder": "泊點",
      "memo": "嘉義鰲鼓濕地森林園區"
    },
    {
      "name": "龍隱寺",
      "lat": 23.4389508,
      "lng": 120.6072938,
      "folder": "泊點",
      "memo": "有水有廁"
    },
    {
      "name": "雲潭瀑布休息站",
      "lat": 23.5317547,
      "lng": 120.6555221,
      "folder": "泊點",
      "memo": "絕佳的車泊點，有水有廁所有VIEW"
    },
    {
      "name": "水社寮車站",
      "lat": 23.5042652,
      "lng": 120.6601757,
      "folder": "泊點",
      "memo": "吳飛坤 水社寮只有土地公廟有簡便的機廁所"
    },
    {
      "name": "頂石棹旅遊服務站",
      "lat": 23.4792614,
      "lng": 120.6986572,
      "folder": "泊點"
    },
    {
      "name": "中和國小",
      "lat": 23.5016383,
      "lng": 120.6982765,
      "folder": "泊點"
    },
    {
      "name": "第三停車場",
      "lat": 23.5051758,
      "lng": 120.6936063,
      "folder": "泊點"
    },
    {
      "name": "奮起湖X停車場",
      "lat": 23.5061127,
      "lng": 120.6951963,
      "folder": "泊點",
      "memo": "2023/3/3 李美珍"
    },
    {
      "name": "鹿麻產火車站(舊址)",
      "lat": 23.5042844,
      "lng": 120.5315544,
      "folder": "泊點"
    },
    {
      "name": "公園停車場",
      "lat": 23.5239433,
      "lng": 120.5463593,
      "folder": "泊點"
    },
    {
      "name": "後龍鎮半天寮休閒文化園區(好望角)",
      "lat": 24.6019617,
      "lng": 120.7312316,
      "folder": "泊點"
    },
    {
      "name": "陸家派出所",
      "lat": 24.538653,
      "lng": 121.027454,
      "folder": "泊點"
    },
    {
      "name": "護魚步道入口停車場",
      "lat": 24.5510173,
      "lng": 120.972703,
      "folder": "泊點",
      "memo": "有水廁"
    },
    {
      "name": "協靈宮",
      "lat": 24.5416405,
      "lng": 120.9505154,
      "folder": "泊點"
    },
    {
      "name": "永春宮",
      "lat": 24.589519,
      "lng": 120.9115912,
      "folder": "泊點",
      "memo": "狗很多,車可進,,,有標誌禁入,待確認"
    },
    {
      "name": "觀音瀑布",
      "lat": 23.9942791,
      "lng": 121.0331606,
      "folder": "泊點"
    },
    {
      "name": "九份二山堰塞湖停車場",
      "lat": 23.948631,
      "lng": 120.8513073,
      "folder": "泊點"
    },
    {
      "name": "集集攔河堰",
      "lat": 23.8162272,
      "lng": 120.7636821,
      "folder": "泊點"
    },
    {
      "name": "龍泉休閒公園",
      "lat": 23.8358443,
      "lng": 120.7480145,
      "folder": "泊點"
    },
    {
      "name": "快活林",
      "lat": 23.6761689,
      "lng": 120.7765893,
      "folder": "泊點"
    },
    {
      "name": "互助國小",
      "lat": 24.063237,
      "lng": 120.969669,
      "folder": "泊點"
    },
    {
      "name": "鳶峰停車場",
      "lat": 24.1179266,
      "lng": 121.2372229,
      "folder": "泊點",
      "memo": "有水有廁"
    },
    {
      "name": "鳳天宮",
      "lat": 23.9314848,
      "lng": 120.6353475,
      "folder": "泊點"
    },
    {
      "name": "郡坑國小",
      "lat": 23.737102,
      "lng": 120.855509,
      "folder": "泊點"
    },
    {
      "name": "上東埔停車場",
      "lat": 23.4826513,
      "lng": 120.8858734,
      "folder": "泊點"
    },
    {
      "name": "石山服務站",
      "lat": 23.4824073,
      "lng": 120.8681934,
      "folder": "泊點",
      "memo": "小而美有水廁但有猴子到處跑"
    },
    {
      "name": "慈恩塔步道停車場",
      "lat": 23.8436507,
      "lng": 120.919584,
      "folder": "泊點",
      "memo": "有水廁"
    },
    {
      "name": "日月潭青年活動中心停車場",
      "lat": 23.8516632,
      "lng": 120.9372239,
      "folder": "泊點"
    },
    {
      "name": "月牙灣",
      "lat": 23.8429783,
      "lng": 120.9045759,
      "folder": "泊點",
      "memo": "2016/12/28"
    },
    {
      "name": "清水國小",
      "lat": 23.9450368,
      "lng": 120.7907525,
      "folder": "泊點"
    },
    {
      "name": "聖義廟管理委員會",
      "lat": 23.754672,
      "lng": 120.670175,
      "folder": "泊點"
    },
    {
      "name": "海口港遊客中心",
      "lat": 22.0900241,
      "lng": 120.7153732,
      "folder": "泊點",
      "memo": "2024/03/02 劉月如"
    },
    {
      "name": "下水堀休息區停車場",
      "lat": 22.0251549,
      "lng": 120.6874337,
      "folder": "泊點",
      "memo": "有水有廁所，也有遮陽"
    },
    {
      "name": "海生館",
      "lat": 22.0453807,
      "lng": 120.6990141,
      "folder": "泊點"
    },
    {
      "name": "賽車場 有收費",
      "lat": 22.451857,
      "lng": 120.4804194,
      "folder": "泊點"
    },
    {
      "name": "高山巖福德宮",
      "lat": 21.962942,
      "lng": 120.7199675,
      "folder": "泊點"
    },
    {
      "name": "古山宮",
      "lat": 21.9239154,
      "lng": 120.7260405,
      "folder": "泊點",
      "memo": "停車場,有水廁"
    },
    {
      "name": "後壁湖遊艇碼頭大型車停車場",
      "lat": 21.946159,
      "lng": 120.743317,
      "folder": "泊點"
    },
    {
      "name": "滿州沙灘停車場",
      "lat": 21.9575418,
      "lng": 120.8396932,
      "folder": "泊點"
    },
    {
      "name": "石珠休息區",
      "lat": 22.0045444,
      "lng": 120.6957807,
      "folder": "泊點",
      "memo": "有水廁"
    },
    {
      "name": "涼山休憩區（大客車停車場）",
      "lat": 22.6863987,
      "lng": 120.6376186,
      "folder": "泊點",
      "memo": "涼山休憩區（大客車停車場）: 大小型停車場都有欄杆圍著 計次收費 休憩區下午五點打烊 不知廁所會不會也關了?"
    },
    {
      "name": "港口遊憩區",
      "lat": 21.9885659,
      "lng": 120.8461189,
      "folder": "泊點"
    },
    {
      "name": "旭海集會所",
      "lat": 22.1909133,
      "lng": 120.8799353,
      "folder": "泊點"
    },
    {
      "name": "夢幻湖停車場",
      "lat": 25.168711,
      "lng": 121.562022,
      "folder": "泊點",
      "memo": "2016/12/20"
    },
    {
      "name": "碧山巖停車場",
      "lat": 25.097159,
      "lng": 121.5883967,
      "folder": "泊點"
    },
    {
      "name": "東河橋遊憩區",
      "lat": 22.9767343,
      "lng": 121.30496,
      "folder": "泊點",
      "memo": "‎2019/12/30 柳喬棋‎ 發文到 【車床天地】 泊點，澡點，景點"
    },
    {
      "name": "向陽國家森林遊樂區遊客服務中心",
      "lat": 23.2481884,
      "lng": 120.9852628,
      "folder": "泊點",
      "memo": "‎2017/03/07 王義凱‎"
    },
    {
      "name": "國際地標(海濱公園)",
      "lat": 22.753121,
      "lng": 121.164646,
      "folder": "泊點",
      "memo": "2019/01/23 Kelly Jao"
    },
    {
      "name": "琵琶湖",
      "lat": 22.7557212,
      "lng": 121.1665645,
      "folder": "泊點",
      "memo": "有收門票,能不能泊待新資料"
    },
    {
      "name": "日昇台",
      "lat": 22.6159725,
      "lng": 120.9956788,
      "folder": "泊點"
    },
    {
      "name": "三和海濱公園",
      "lat": 22.6699251,
      "lng": 121.0357268,
      "folder": "泊點",
      "memo": "2017/02/09"
    },
    {
      "name": "烏石鼻港",
      "lat": 23.2277309,
      "lng": 121.4171192,
      "folder": "泊點"
    },
    {
      "name": "台南市南區親水公園",
      "lat": 22.9204521,
      "lng": 120.175242,
      "folder": "泊點"
    },
    {
      "name": "台灣黑面琵鷺保育學會 Black-Faced Spoonbill Conservation Association",
      "lat": 23.182815,
      "lng": 120.111036,
      "folder": "泊點"
    },
    {
      "name": "天鵝湖公園",
      "lat": 23.330827,
      "lng": 120.317657,
      "folder": "泊點",
      "memo": "2017/02/09"
    },
    {
      "name": "環保運動公園停車場",
      "lat": 24.1581084,
      "lng": 120.5518926,
      "folder": "泊點"
    },
    {
      "name": "鐵砧山風景區停車場",
      "lat": 24.357823,
      "lng": 120.645808,
      "folder": "泊點",
      "memo": "2017/03/24 邱學賢大甲鉄砧山公園適合野營~有水電、厕所、商店。"
    },
    {
      "name": "鐵砧山風景區遊客服務中心",
      "lat": 24.3592113,
      "lng": 120.6500586,
      "folder": "泊點"
    },
    {
      "name": "泰安派出所",
      "lat": 24.3245029,
      "lng": 120.7516176,
      "folder": "泊點",
      "memo": "202050211 張 英哲"
    },
    {
      "name": "保安尊王廟",
      "lat": 24.284238,
      "lng": 120.5894746,
      "folder": "泊點"
    },
    {
      "name": "西安朝天宮",
      "lat": 24.3081588,
      "lng": 120.5494773,
      "folder": "泊點"
    },
    {
      "name": "新田登山步道停車場",
      "lat": 24.214087,
      "lng": 120.7379079,
      "folder": "泊點"
    },
    {
      "name": "立法院中部辦公室",
      "lat": 24.0539879,
      "lng": 120.699866,
      "folder": "泊點",
      "memo": "2025/2/25 張英哲"
    },
    {
      "name": "潮洋環保公園",
      "lat": 24.1659227,
      "lng": 120.6317094,
      "folder": "泊點"
    },
    {
      "name": "白冷圳紀念公園",
      "lat": 24.1679707,
      "lng": 120.8294705,
      "folder": "泊點"
    },
    {
      "name": "角板山公園",
      "lat": 24.8139498,
      "lng": 121.350744,
      "folder": "泊點"
    },
    {
      "name": "達觀山風景區停車場",
      "lat": 24.6802284,
      "lng": 121.3838869,
      "folder": "泊點"
    },
    {
      "name": "上巴陵停车场",
      "lat": 24.6904323,
      "lng": 121.4057215,
      "folder": "泊點",
      "memo": "有水有廁"
    },
    {
      "name": "龍米河濱公園",
      "lat": 25.1497949,
      "lng": 121.4438589,
      "folder": "泊點"
    },
    {
      "name": "無極天元宮停車場",
      "lat": 25.1869344,
      "lng": 121.4841839,
      "folder": "泊點"
    },
    {
      "name": "貢寮運動公園",
      "lat": 25.0288946,
      "lng": 121.9298328,
      "folder": "泊點"
    },
    {
      "name": "新北市貢寮區和美國民小學",
      "lat": 25.1123675,
      "lng": 121.9195247,
      "folder": "泊點",
      "memo": "和美附近的潛水店或是出租浮潛器具的店都可進去沖水洗澡"
    },
    {
      "name": "金沙灣停車場",
      "lat": 25.0754371,
      "lng": 121.9150606,
      "folder": "泊點",
      "memo": "2017/03/20"
    },
    {
      "name": "西靈巖寺",
      "lat": 25.1051051,
      "lng": 121.9211489,
      "folder": "泊點"
    },
    {
      "name": "龍洞漁港P",
      "lat": 25.1120914,
      "lng": 121.9140252,
      "folder": "泊點"
    },
    {
      "name": "龍興廟",
      "lat": 25.113625,
      "lng": 121.9120939,
      "folder": "泊點",
      "memo": "龍興廟，旁有空地及水廁"
    },
    {
      "name": "遠望坑親水公園",
      "lat": 25.0025291,
      "lng": 121.929973,
      "folder": "泊點"
    },
    {
      "name": "昭惠廟P",
      "lat": 25.0271746,
      "lng": 121.9309983,
      "folder": "泊點"
    },
    {
      "name": "承天宮",
      "lat": 25.225359,
      "lng": 121.644756,
      "folder": "泊點"
    },
    {
      "name": "沙珠灣",
      "lat": 25.2391365,
      "lng": 121.6334715,
      "folder": "泊點"
    },
    {
      "name": "獅頭山公園",
      "lat": 25.2253258,
      "lng": 121.6457403,
      "folder": "泊點",
      "memo": "2017/02/27"
    },
    {
      "name": "南雅漁港安檢所",
      "lat": 25.120883,
      "lng": 121.8883602,
      "folder": "泊點"
    },
    {
      "name": "忠孝宮",
      "lat": 25.132386,
      "lng": 121.810787,
      "folder": "泊點"
    },
    {
      "name": "水湳洞威遠廟",
      "lat": 25.1203639,
      "lng": 121.8681456,
      "folder": "泊點"
    },
    {
      "name": "白雞行修宮",
      "lat": 24.9050964,
      "lng": 121.4018288,
      "folder": "泊點",
      "memo": "2018/06/06 施盈廷"
    },
    {
      "name": "陽明山二子坪遊客服務中心",
      "lat": 25.1860896,
      "lng": 121.5252407,
      "folder": "泊點"
    },
    {
      "name": "富貴角公園停車場",
      "lat": 25.2902959,
      "lng": 121.5402284,
      "folder": "泊點",
      "memo": "2017/11/01 吳大"
    },
    {
      "name": "獅子公園",
      "lat": 25.175121,
      "lng": 121.705923,
      "folder": "泊點"
    },
    {
      "name": "姜子寮公園",
      "lat": 25.0623933,
      "lng": 121.7104386,
      "folder": "泊點",
      "memo": "2017/03/05"
    },
    {
      "name": "寶二水庫小停車場",
      "lat": 24.7276731,
      "lng": 121.0564557,
      "folder": "泊點",
      "memo": "水廁資訊不明.街景圖看不到水廁"
    },
    {
      "name": "獅山遊客中心停車場",
      "lat": 24.6551187,
      "lng": 121.0247142,
      "folder": "泊點",
      "memo": "2017/01/24 林志煌"
    },
    {
      "name": "水濂洞P",
      "lat": 24.6544036,
      "lng": 121.02586,
      "folder": "泊點"
    },
    {
      "name": "合興火車站",
      "lat": 24.716709,
      "lng": 121.15439,
      "folder": "泊點",
      "memo": "2018/01/06 David Seagal David‎"
    },
    {
      "name": "秀巒國小",
      "lat": 24.6190319,
      "lng": 121.285989,
      "folder": "泊點"
    },
    {
      "name": "惠民宮",
      "lat": 24.7859311,
      "lng": 120.9152023,
      "folder": "泊點",
      "memo": "https://yingtingshih.pixnet.net/blog/post/216749622"
    },
    {
      "name": "青青草原（草原路入口）",
      "lat": 24.7727708,
      "lng": 120.92531,
      "folder": "泊點",
      "memo": "2018/03/08 施盈廷"
    },
    {
      "name": "蓮花寺",
      "lat": 24.8765904,
      "lng": 120.9616172,
      "folder": "泊點"
    },
    {
      "name": "太平山收費站",
      "lat": 24.5573333,
      "lng": 121.499525,
      "folder": "泊點",
      "memo": "2014/05/12"
    },
    {
      "name": "冬山河生態綠舟",
      "lat": 24.6388068,
      "lng": 121.7885301,
      "folder": "泊點"
    },
    {
      "name": "黃帝神宮",
      "lat": 24.7989439,
      "lng": 121.7418264,
      "folder": "泊點",
      "memo": "2024/01/10 蔡宗憲"
    },
    {
      "name": "太平山莊P",
      "lat": 24.4923233,
      "lng": 121.5368289,
      "folder": "泊點",
      "memo": "2018/10/23 林永盛"
    },
    {
      "name": "分洪堰風景區停車場",
      "lat": 24.6867599,
      "lng": 121.728027,
      "folder": "泊點",
      "memo": "2017/03/13"
    },
    {
      "name": "粉鳥林漁港P",
      "lat": 24.4973758,
      "lng": 121.8421742,
      "folder": "泊點",
      "memo": "2017/01/01 林明賢"
    },
    {
      "name": "炮台山",
      "lat": 24.593252,
      "lng": 121.856997,
      "folder": "泊點"
    },
    {
      "name": "福德正神廟P",
      "lat": 24.9432715,
      "lng": 121.9031516,
      "folder": "泊點"
    },
    {
      "name": "大里遊客服務中心小型車停車場",
      "lat": 24.9688703,
      "lng": 121.9240663,
      "folder": "泊點"
    },
    {
      "name": "大里海岸P",
      "lat": 24.9656465,
      "lng": 121.9227907,
      "folder": "泊點"
    },
    {
      "name": "大溪漁港休閒公園",
      "lat": 24.9419323,
      "lng": 121.9016479,
      "folder": "泊點"
    },
    {
      "name": "石城縣界公園停車場",
      "lat": 24.9835633,
      "lng": 121.9596844,
      "folder": "泊點",
      "memo": "2017/02/14"
    },
    {
      "name": "冬山河青龍岸",
      "lat": 24.669602,
      "lng": 121.814961,
      "folder": "泊點"
    },
    {
      "name": "華山教育農園",
      "lat": 23.597084,
      "lng": 120.611905,
      "folder": "泊點"
    },
    {
      "name": "嘉南雲峰登山口停車場",
      "lat": 23.6131179,
      "lng": 120.7206195,
      "folder": "泊點"
    },
    {
      "name": "口湖遊客中心",
      "lat": 23.5482068,
      "lng": 120.182276,
      "folder": "泊點",
      "memo": "2018/02/24 施恊慨‎"
    },
    {
      "name": "觀夕平台P",
      "lat": 22.9906987,
      "lng": 120.1474124,
      "folder": "泊點",
      "memo": "2016/12/18"
    },
    {
      "name": "王功福海宮-天上聖母",
      "lat": 23.953245,
      "lng": 120.334402,
      "folder": "泊點"
    },
    {
      "name": "鞍馬山莊",
      "lat": 24.2549871,
      "lng": 121.0087391,
      "folder": "泊點",
      "memo": "43k 鞍馬山莊 停車場 有水有廁, 但山莊人會趕在此搭帳棚的 (縱使晚上以後搭)"
    },
    {
      "name": "天池P 有廁有水",
      "lat": 24.2827875,
      "lng": 121.0292584,
      "folder": "泊點"
    },
    {
      "name": "珠湖登山口停車場",
      "lat": 24.3799841,
      "lng": 120.9119305,
      "folder": "泊點",
      "memo": "2020/05/25 東方"
    },
    {
      "name": "大棟山停車場",
      "lat": 23.5006902,
      "lng": 120.71239,
      "folder": "泊點",
      "memo": "2016/12/19"
    },
    {
      "name": "馬那邦山登山步道第二停車場",
      "lat": 24.3740549,
      "lng": 120.8904449,
      "folder": "泊點",
      "memo": "2016/12/19"
    },
    {
      "name": "馬拉邦山第一停車場",
      "lat": 24.378645,
      "lng": 120.887737,
      "folder": "泊點",
      "memo": "2016/12/12"
    },
    {
      "name": "點 500",
      "lat": 22.9986467,
      "lng": 120.1578462,
      "folder": "泊點"
    },
    {
      "name": "免費停車場",
      "lat": 22.9987448,
      "lng": 120.1588705,
      "folder": "泊點"
    },
    {
      "name": "漁光島",
      "lat": 22.9809878,
      "lng": 120.1557128,
      "folder": "泊點",
      "memo": "2016-12-19 box.triper"
    },
    {
      "name": "塭仔漁港觀景台",
      "lat": 24.1258305,
      "lng": 120.43796,
      "folder": "泊點",
      "memo": "2016/12/19"
    },
    {
      "name": "中興體育館停車場",
      "lat": 23.9431764,
      "lng": 120.7005617,
      "folder": "泊點",
      "memo": "2016/12/20 段傳仁"
    },
    {
      "name": "外澳觀景區",
      "lat": 24.8823974,
      "lng": 121.8450603,
      "folder": "泊點",
      "memo": "2016/12/20"
    },
    {
      "name": "烏石港",
      "lat": 24.8693546,
      "lng": 121.8374562,
      "folder": "泊點",
      "memo": "2016/12/23 林覺非"
    },
    {
      "name": "新竹縣政府警察局橫山分局秀巒檢查哨",
      "lat": 24.6160793,
      "lng": 121.2844386,
      "folder": "泊點"
    },
    {
      "name": "蓮池潭風景區停車場",
      "lat": 22.6799894,
      "lng": 120.2982791,
      "folder": "泊點",
      "memo": "2016/12/20"
    },
    {
      "name": "高雄都會公園小客車停車場",
      "lat": 22.735735,
      "lng": 120.306693,
      "folder": "泊點",
      "memo": "2016/12/20"
    },
    {
      "name": "野柳海洋世界",
      "lat": 25.205185,
      "lng": 121.69136,
      "folder": "泊點",
      "memo": "2016/12/28 謝少輔"
    },
    {
      "name": "花蓮遊客中心停車場",
      "lat": 23.9044433,
      "lng": 121.6030035,
      "folder": "泊點",
      "memo": "有水廁"
    },
    {
      "name": "楠梓運動場停車場",
      "lat": 22.7341716,
      "lng": 120.3325302,
      "folder": "泊點",
      "memo": "2016/12/23 林明賢有在利用高速公路南北車泊的朋友,有福氣的啦~"
    },
    {
      "name": "古嚴寺",
      "lat": 22.7130884,
      "lng": 120.3901875,
      "folder": "泊點",
      "memo": "2016/12/26"
    },
    {
      "name": "天后宮",
      "lat": 22.7707143,
      "lng": 120.3600066,
      "folder": "泊點",
      "memo": "2016/12/28"
    },
    {
      "name": "遊艇碼頭",
      "lat": 24.5905979,
      "lng": 120.912222,
      "folder": "泊點",
      "memo": "2016/12/26"
    },
    {
      "name": "停車場",
      "lat": 25.1137454,
      "lng": 121.2415498,
      "folder": "泊點"
    },
    {
      "name": "東勢客家文化園區",
      "lat": 24.25765,
      "lng": 120.83185,
      "folder": "泊點",
      "memo": "2023/05/05 黃GM"
    },
    {
      "name": "王功漁港旅客服務中心",
      "lat": 23.9696353,
      "lng": 120.3264476,
      "folder": "泊點",
      "memo": "2016/12/26 林波停泊點 狀況回報 王功漁港"
    },
    {
      "name": "虎山岩遊憩區停車場",
      "lat": 24.0436826,
      "lng": 120.5601054,
      "folder": "泊點",
      "memo": "2019/05/01 ‎Chienwin Luo‎"
    },
    {
      "name": "風力活動公園",
      "lat": 24.8509445,
      "lng": 120.9277693,
      "folder": "泊點",
      "memo": "2016/12/24 謝少輔環島第六站～ 新竹風力公園～ 早上去南寮游泳池洗澡(五十塊) 洗完跑去吃早餐然後看到一隻很肥很可愛的狗 就前往風力公園了 這裡停車位很像只有假日才要收錢 但是今天是星期六... 免錢的車位很難找 廁所好像也只有公園服務區才有 而且很遠 新竹風很大 小弟幸運的找到可以擋風的地方。但是要去廁所真的是要走很長一段 剛剛吃了貢丸 嗯... 沒什麼感想 就是很貴的貢丸... 以上"
    },
    {
      "name": "梧棲漁港停車場",
      "lat": 24.293402,
      "lng": 120.5240368,
      "folder": "泊點"
    },
    {
      "name": "豆腐岬",
      "lat": 24.5838192,
      "lng": 121.8714394,
      "folder": "泊點",
      "memo": "2024/04/28"
    },
    {
      "name": "鹽寮海岸",
      "lat": 23.892165,
      "lng": 121.6037393,
      "folder": "泊點",
      "memo": "有水有廁"
    },
    {
      "name": "龍鳳宮後殿停車場",
      "lat": 24.6945412,
      "lng": 120.8657107,
      "folder": "泊點",
      "memo": "2016/12/29 ‎曾寶寶"
    },
    {
      "name": "苗26芎蕉坪，香菇土地公廟",
      "lat": 24.5389155,
      "lng": 120.8856556,
      "folder": "泊點",
      "memo": "2016/12/30 楊森雲"
    },
    {
      "name": "北浦停車場",
      "lat": 24.0381902,
      "lng": 121.6242575,
      "folder": "泊點"
    },
    {
      "name": "七星潭驛站",
      "lat": 24.0283002,
      "lng": 121.6302475,
      "folder": "泊點"
    },
    {
      "name": "第二停車場",
      "lat": 22.6927352,
      "lng": 121.0169609,
      "folder": "泊點",
      "memo": "2016/12/30"
    },
    {
      "name": "斜張橋下停車場",
      "lat": 22.7576818,
      "lng": 120.4485708,
      "folder": "泊點",
      "memo": "目前沒有水廁訊息"
    },
    {
      "name": "超峰寺 泊點",
      "lat": 22.8550642,
      "lng": 120.3414354,
      "folder": "泊點",
      "memo": "夜景不錯,超峰寺有水廁"
    },
    {
      "name": "龍山寺",
      "lat": 22.8397021,
      "lng": 120.3570566,
      "folder": "泊點",
      "memo": "2016/12/30 林明賢"
    },
    {
      "name": "燕巢區活動中心公園",
      "lat": 22.7819411,
      "lng": 120.3618523,
      "folder": "泊點",
      "memo": "2016/12/30 林明賢"
    },
    {
      "name": "停車場",
      "lat": 22.7915952,
      "lng": 121.1242113,
      "folder": "泊點",
      "memo": "2016/12/30"
    },
    {
      "name": "清龍宮",
      "lat": 22.8115466,
      "lng": 120.398443,
      "folder": "泊點",
      "memo": "2017/01/01 林明賢新年快樂~"
    },
    {
      "name": "烏山頂泥火山",
      "lat": 22.7960326,
      "lng": 120.4059703,
      "folder": "泊點",
      "memo": "2017/01/01 林明賢"
    },
    {
      "name": "北極殿",
      "lat": 22.7952948,
      "lng": 120.3754007,
      "folder": "泊點",
      "memo": "2017/01/01 林明賢"
    },
    {
      "name": "昊天宮",
      "lat": 22.8192041,
      "lng": 120.4268842,
      "folder": "泊點",
      "memo": "2017/01/01 林明賢"
    },
    {
      "name": "布洛灣",
      "lat": 24.1710796,
      "lng": 121.5745354,
      "folder": "泊點",
      "memo": "2017/01/01 蔡麗真"
    },
    {
      "name": "長虹橋下停車場",
      "lat": 23.4679161,
      "lng": 121.490601,
      "folder": "泊點",
      "memo": "2017/01/01"
    },
    {
      "name": "東岳湧泉",
      "lat": 24.5249335,
      "lng": 121.8297841,
      "folder": "泊點",
      "memo": "2017/01/01 林明賢"
    },
    {
      "name": "石門洞停車場",
      "lat": 25.2968544,
      "lng": 121.5697932,
      "folder": "泊點",
      "memo": "2017/01/01"
    },
    {
      "name": "旭海海邊，無廁無水",
      "lat": 22.174791,
      "lng": 120.892526,
      "folder": "泊點",
      "memo": "2017/01/02 朱佐湸"
    },
    {
      "name": "岡山河堤公園",
      "lat": 22.7859602,
      "lng": 120.2947497,
      "folder": "泊點",
      "memo": "2017/01/02 FC Chen岡山勵志新城社區旁河堤公園，路邊停車位，有厕所、水，應可車床夜宿！"
    },
    {
      "name": "渡船頭平面停車場",
      "lat": 25.156885,
      "lng": 121.435313,
      "folder": "泊點",
      "memo": "2017/01/02"
    },
    {
      "name": "阿公店水庫風景區管理處",
      "lat": 22.8033083,
      "lng": 120.356345,
      "folder": "泊點",
      "memo": "2020/10/23 fang ping"
    },
    {
      "name": "峨眉湖停車場",
      "lat": 24.6789245,
      "lng": 120.980324,
      "folder": "泊點",
      "memo": "2017/01/03"
    },
    {
      "name": "九寮溪停車場",
      "lat": 24.672997,
      "lng": 121.6013682,
      "folder": "泊點",
      "memo": "2017/01/04"
    },
    {
      "name": "７-１１維軒店",
      "lat": 22.3824702,
      "lng": 120.5956692,
      "folder": "泊點",
      "memo": "2017/01/07"
    },
    {
      "name": "武岫農圃",
      "lat": 23.682327,
      "lng": 120.767662,
      "folder": "泊點",
      "memo": "2023/09/24"
    },
    {
      "name": "好望角停車場",
      "lat": 23.665262,
      "lng": 120.854863,
      "folder": "泊點",
      "memo": "2017/01/14 李朝發停車場有水廁， 乾淨舒適內有熱水 要跟店家打聲招呼 免費享用 多少交觀一些農產品 促進經濟"
    },
    {
      "name": "雙溪熱帶林(雙溪熱帶森林遊樂園)",
      "lat": 22.9329872,
      "lng": 120.5926208,
      "folder": "泊點",
      "memo": "2017/01/14"
    },
    {
      "name": "天祝宮",
      "lat": 24.4460141,
      "lng": 121.8007099,
      "folder": "泊點",
      "memo": "2017/01/15 林明賢"
    },
    {
      "name": "大崗山如意公園",
      "lat": 22.8519814,
      "lng": 120.3351511,
      "folder": "泊點",
      "memo": "2017/01/15 林明賢大崗山風景區山上,因太漂亮又有無敵山海景可賞。山上平日人少還好的,假日人潮眾多在那賞夜景的。另外提供那山脚下的如意停車場,是在山脚下紅色牌樓旁的休憩區,則是安靜多的啦！~"
    },
    {
      "name": "大崗山超峰寺",
      "lat": 22.8547648,
      "lng": 120.3423207,
      "folder": "泊點",
      "memo": "2017/01/16 林明賢這是大崗山風景區,山上的精華地區。因為可一次擁抱,觀賞到北高雄平原山诲景色,台南南部也盡在眼底的。到此賞景是非常值得,來此賞景夜泊的啦!~"
    },
    {
      "name": "草屯植物公園",
      "lat": 23.977301,
      "lng": 120.693885,
      "folder": "泊點",
      "memo": "2017/01/16"
    },
    {
      "name": "朝陽運動場",
      "lat": 24.6789659,
      "lng": 121.6080254,
      "folder": "泊點",
      "memo": "2017/01/21"
    },
    {
      "name": "秀姑巒溪泛舟中心停車場",
      "lat": 23.4886559,
      "lng": 121.4014761,
      "folder": "泊點",
      "memo": "2017/01/30 逸騰 黃"
    },
    {
      "name": "船帆石停車場",
      "lat": 21.9333772,
      "lng": 120.8235303,
      "folder": "泊點",
      "memo": "2024/03/04"
    },
    {
      "name": "小半天石馬公園",
      "lat": 23.7258888,
      "lng": 120.7580777,
      "folder": "泊點",
      "memo": "2017/01/22 林庭偉"
    },
    {
      "name": "水里二坪枝仔冰(鉅工冰店)",
      "lat": 23.8139245,
      "lng": 120.8577868,
      "folder": "泊點",
      "memo": "2017/01/23"
    },
    {
      "name": "車埕遊客中心",
      "lat": 23.8335159,
      "lng": 120.8664811,
      "folder": "泊點"
    },
    {
      "name": "國立彰化生活美學館",
      "lat": 24.0761206,
      "lng": 120.5574673,
      "folder": "泊點",
      "memo": "2017/01/24 黎瑞超生活美學館晚上安靜有水廁，缺點很多早起運動的人。"
    },
    {
      "name": "水交社工藝聚落",
      "lat": 22.9769769,
      "lng": 120.2022368,
      "folder": "泊點",
      "memo": "2017/01/24 Box Triper"
    },
    {
      "name": "國立台灣史前文化博物館北向停車場",
      "lat": 22.7601471,
      "lng": 121.0930275,
      "folder": "泊點",
      "memo": "有廁有水"
    },
    {
      "name": "台東體育館",
      "lat": 22.7521749,
      "lng": 121.1448616,
      "folder": "泊點",
      "memo": "2017/01/25 陳鴻微 體育館旁,有廁所有澡堂(免費),近市區,附近早上有早市,現在可去逛夜市"
    },
    {
      "name": "7-11 蓮營店",
      "lat": 23.3284132,
      "lng": 120.3440479,
      "folder": "泊點",
      "memo": "2017/01/30"
    },
    {
      "name": "紫南宮",
      "lat": 23.8171511,
      "lng": 120.7226153,
      "folder": "泊點",
      "memo": "停車場有水廁"
    },
    {
      "name": "向日廣場",
      "lat": 23.9981383,
      "lng": 121.6408154,
      "folder": "泊點",
      "memo": "2017/01/31"
    },
    {
      "name": "台灣中油(直營)南山站",
      "lat": 24.4388757,
      "lng": 121.3789826,
      "folder": "泊點"
    },
    {
      "name": "泰雅路七段137號",
      "lat": 24.4406051,
      "lng": 121.3803296,
      "folder": "泊點",
      "memo": "2017/02/01"
    },
    {
      "name": "7-ELEVEN",
      "lat": 21.9703631,
      "lng": 120.7554942,
      "folder": "泊點"
    },
    {
      "name": "土地公廟",
      "lat": 23.4947755,
      "lng": 121.3524726,
      "folder": "泊點",
      "memo": "有大遮雨棚,有廁"
    },
    {
      "name": "靜思精舍",
      "lat": 24.0549902,
      "lng": 121.6005608,
      "folder": "泊點",
      "memo": "2023/01/28 若凡"
    },
    {
      "name": "九天玄女廟",
      "lat": 24.7865332,
      "lng": 120.9767049,
      "folder": "泊點",
      "memo": "有水有廁有露台"
    },
    {
      "name": "台灣中油(大湖站)",
      "lat": 24.4282889,
      "lng": 120.8678289,
      "folder": "泊點",
      "memo": "2017/02/04"
    },
    {
      "name": "大溪龍山寺",
      "lat": 24.8947211,
      "lng": 121.3237005,
      "folder": "泊點",
      "hot_water": 2017,
      "memo": "2017/02/05 FC Chen"
    },
    {
      "name": "新東糖廠文化園區",
      "lat": 22.872392,
      "lng": 121.226547,
      "folder": "泊點",
      "memo": "2017/02/05 江蓉蓉 都蘭的新東糖廠有廁有水，是不錯的點"
    },
    {
      "name": "文武廟停車場",
      "lat": 24.0491731,
      "lng": 120.4390964,
      "folder": "泊點",
      "memo": "2024/04/14 陳全民"
    },
    {
      "name": "大同鄉公所",
      "lat": 24.677412,
      "lng": 121.6090927,
      "folder": "泊點",
      "memo": "2017/02/01 Chang Giwei大同鄉公所前停車廣場 水 廁所 方便"
    },
    {
      "name": "上磺溪停車場",
      "lat": 25.1780675,
      "lng": 121.5831489,
      "folder": "泊點",
      "memo": "2022/03/30 許如皥"
    },
    {
      "name": "長埤湖風景區小型車停車場",
      "lat": 24.6420839,
      "lng": 121.610458,
      "folder": "泊點"
    },
    {
      "name": "新營太子宮太子爺廟",
      "lat": 23.2951008,
      "lng": 120.2733224,
      "folder": "泊點"
    },
    {
      "name": "進石棹前-小停車場",
      "lat": 23.4723201,
      "lng": 120.6962246,
      "folder": "泊點",
      "memo": "2024/1/10 萬章"
    },
    {
      "name": "太魯閣遊客中心",
      "lat": 24.15829,
      "lng": 121.622943,
      "folder": "泊點",
      "memo": "2017/07/19"
    },
    {
      "name": "7-Eleven 天祥門市",
      "lat": 24.1827368,
      "lng": 121.4946548,
      "folder": "泊點",
      "memo": "2017/02/09"
    },
    {
      "name": "天祥停車場",
      "lat": 24.1825475,
      "lng": 121.4944078,
      "folder": "泊點"
    },
    {
      "name": "寶來派出所旁空地",
      "lat": 23.1074417,
      "lng": 120.6983998,
      "folder": "泊點",
      "memo": "派出所對面有公廁"
    },
    {
      "name": "臺南市新營體育場",
      "lat": 23.3213822,
      "lng": 120.311499,
      "folder": "泊點"
    },
    {
      "name": "新營文化中心",
      "lat": 23.3086346,
      "lng": 120.3159839,
      "folder": "泊點"
    },
    {
      "name": "鹿野火車站",
      "lat": 22.912469,
      "lng": 121.137003,
      "folder": "泊點",
      "memo": "2017/02/11 葉業東"
    },
    {
      "name": "台糖量販店",
      "lat": 22.61468,
      "lng": 120.358147,
      "folder": "泊點"
    },
    {
      "name": "高坪公園",
      "lat": 22.563156,
      "lng": 120.3879552,
      "folder": "泊點"
    },
    {
      "name": "平湖森林遊樂區停車場",
      "lat": 25.0300254,
      "lng": 121.7934626,
      "folder": "泊點",
      "memo": "2017/12/15 許台正"
    },
    {
      "name": "新埔嶺頂土地公廟",
      "lat": 24.5592288,
      "lng": 120.7056606,
      "folder": "泊點",
      "memo": "2017/02/12 林倆冠"
    },
    {
      "name": "向天湖停車場",
      "lat": 24.584429,
      "lng": 121.0328562,
      "folder": "泊點",
      "memo": "有水有廁"
    },
    {
      "name": "蕃薯寮休息區停車場",
      "lat": 23.746929,
      "lng": 121.5553576,
      "folder": "泊點",
      "memo": "2017/02/14"
    },
    {
      "name": "阿里山遊樂區第二停車場",
      "lat": 23.5114925,
      "lng": 120.8039629,
      "folder": "泊點",
      "memo": "有水廁,有7-11"
    },
    {
      "name": "楓港漁港",
      "lat": 22.1880209,
      "lng": 120.6902379,
      "folder": "泊點",
      "memo": "2017/02/23"
    },
    {
      "name": "旗山文武廟",
      "lat": 22.8917303,
      "lng": 120.4829357,
      "folder": "泊點",
      "memo": "2017/02/24"
    },
    {
      "name": "南靖糖廠休閒賣場",
      "lat": 23.413783,
      "lng": 120.3850636,
      "folder": "泊點",
      "memo": "2017/02/25"
    },
    {
      "name": "台江國家公園管理處行政中心暨遊客中心",
      "lat": 23.003405,
      "lng": 120.135609,
      "folder": "泊點",
      "memo": "2018/01/18 ‎Joy Lin‎"
    },
    {
      "name": "黃金海岸",
      "lat": 22.9332088,
      "lng": 120.1762577,
      "folder": "泊點",
      "memo": "2017/02/26"
    },
    {
      "name": "竹炭故事館",
      "lat": 22.9647178,
      "lng": 120.3602273,
      "folder": "泊點"
    },
    {
      "name": "綠色隧道景觀公園",
      "lat": 23.6547746,
      "lng": 120.5433655,
      "folder": "泊點",
      "memo": "2017/03/31"
    },
    {
      "name": "慈光寺",
      "lat": 23.6125529,
      "lng": 120.5741959,
      "folder": "泊點"
    },
    {
      "name": "陵后宮",
      "lat": 24.3553343,
      "lng": 121.3252387,
      "folder": "泊點",
      "memo": "2017/02/27 歐南南"
    },
    {
      "name": "玉峰大橋",
      "lat": 24.6556371,
      "lng": 121.3065827,
      "folder": "泊點",
      "memo": "2017/02/27 歐南南"
    },
    {
      "name": "慈濟宮",
      "lat": 22.9185694,
      "lng": 120.2126643,
      "folder": "泊點",
      "memo": "2017/02/28 李煌育台南仁德區行大街慈濟宮"
    },
    {
      "name": "石門壩頂停車場",
      "lat": 24.8112878,
      "lng": 121.2447685,
      "folder": "泊點",
      "memo": "2017/03/05"
    },
    {
      "name": "南投草屯七股神木樟樹公",
      "lat": 23.9637457,
      "lng": 120.72875,
      "folder": "泊點",
      "memo": "2018/11/24 施盈廷"
    },
    {
      "name": "芬園寶藏寺停車場",
      "lat": 24.0029309,
      "lng": 120.627025,
      "folder": "泊點",
      "memo": "2017/03/05"
    },
    {
      "name": "南開科技大學",
      "lat": 23.979171,
      "lng": 120.69625,
      "folder": "泊點",
      "memo": "2017/03/05"
    },
    {
      "name": "石門風箏公園停車場",
      "lat": 25.2905496,
      "lng": 121.5479572,
      "folder": "泊點",
      "memo": "2017/03/05"
    },
    {
      "name": "靖山活動中心側邊環河道停車場",
      "lat": 24.950017,
      "lng": 121.353211,
      "folder": "泊點",
      "memo": "2017/03/06 藍承佑"
    },
    {
      "name": "鶯歌二橋永安宮(土地公廟)",
      "lat": 24.9419947,
      "lng": 121.3394907,
      "folder": "泊點",
      "memo": "2017/03/06 藍承佑"
    },
    {
      "name": "碧龍宮停車場",
      "lat": 24.9622275,
      "lng": 121.3655376,
      "folder": "泊點",
      "memo": "2017/03/06 藍承佑"
    },
    {
      "name": "新竹市立動物園",
      "lat": 24.8001864,
      "lng": 120.9795113,
      "folder": "泊點",
      "memo": "2017/03/09"
    },
    {
      "name": "十八尖山停車場",
      "lat": 24.7951734,
      "lng": 120.9869385,
      "folder": "泊點",
      "memo": "有水廁"
    },
    {
      "name": "萊爾富 | 竹北水岸店",
      "lat": 24.8042588,
      "lng": 121.030006,
      "folder": "泊點",
      "memo": "Jason Cheng 萊爾富 | 竹北水岸店 旁有塊空地, 人也不多, 便利商店有廁所"
    },
    {
      "name": "東河駐車場",
      "lat": 22.9739122,
      "lng": 121.3110387,
      "folder": "泊點",
      "memo": "2017/03/09"
    },
    {
      "name": "龍鳳谷停車場",
      "lat": 25.1438278,
      "lng": 121.5286374,
      "folder": "泊點",
      "memo": "2017/03/13"
    },
    {
      "name": "拉拉山旅遊服務中心",
      "lat": 24.6797674,
      "lng": 121.3839714,
      "folder": "泊點",
      "memo": "2017/03/15"
    },
    {
      "name": "公園路一段409號",
      "lat": 24.0758543,
      "lng": 120.554446,
      "folder": "泊點",
      "memo": "2017/.3/15"
    },
    {
      "name": "華陽公園",
      "lat": 24.068392,
      "lng": 120.554931,
      "folder": "泊點",
      "memo": "2017/03/15 祝焉島"
    },
    {
      "name": "山海漁港",
      "lat": 21.9862045,
      "lng": 120.7123161,
      "folder": "泊點",
      "memo": "2017/03/18"
    },
    {
      "name": "青桐林生態產業園區",
      "lat": 24.0512013,
      "lng": 120.7806043,
      "folder": "泊點",
      "memo": "2017/.3/19 Huey Luo"
    },
    {
      "name": "田寮月世界19K",
      "lat": 22.8863662,
      "lng": 120.3915659,
      "folder": "泊點",
      "memo": "2017/03/22 box.triper"
    },
    {
      "name": "五龍山鳳山寺",
      "lat": 22.8680378,
      "lng": 120.4895142,
      "folder": "泊點",
      "memo": "2017/03/22 box.triper"
    },
    {
      "name": "鄒族自然與文化中心",
      "lat": 23.4539283,
      "lng": 120.7493689,
      "folder": "泊點",
      "memo": "2017/03/22"
    },
    {
      "name": "耶穌堂",
      "lat": 23.8635543,
      "lng": 120.910167,
      "folder": "泊點",
      "memo": "2017/03/23"
    },
    {
      "name": "中興停車場",
      "lat": 23.8656645,
      "lng": 120.9113941,
      "folder": "泊點",
      "memo": "2017/03/23"
    },
    {
      "name": "彰化縣政府水利資源處",
      "lat": 24.0756793,
      "lng": 120.5545859,
      "folder": "泊點",
      "memo": "2017/03/23"
    },
    {
      "name": "清安豆腐街",
      "lat": 24.4473104,
      "lng": 120.9057698,
      "folder": "泊點",
      "memo": "2017/03/22"
    },
    {
      "name": "三義車亭休息站",
      "lat": 24.3899909,
      "lng": 120.758705,
      "folder": "泊點",
      "memo": "吃喝玩樂都方便,有水有廁"
    },
    {
      "name": "社頂自然公園停車場",
      "lat": 21.9564434,
      "lng": 120.8184381,
      "folder": "泊點",
      "memo": "有水廁"
    },
    {
      "name": "集集武昌宮（地震宮）",
      "lat": 23.830798,
      "lng": 120.7920445,
      "folder": "泊點",
      "memo": "2017/04/01"
    },
    {
      "name": "九芎神木",
      "lat": 23.6139502,
      "lng": 120.7207176,
      "folder": "泊點",
      "memo": "2017/04/02"
    },
    {
      "name": "南鯤鯓代天府",
      "lat": 23.2860869,
      "lng": 120.143135,
      "folder": "泊點",
      "memo": "2017/04/03"
    },
    {
      "name": "台子港安檢所",
      "lat": 23.5594489,
      "lng": 120.1398285,
      "folder": "泊點",
      "memo": "‎2017/04/07"
    },
    {
      "name": "雲洞宮",
      "lat": 24.549102,
      "lng": 120.9037569,
      "folder": "泊點",
      "memo": "2017/04/14"
    },
    {
      "name": "慈玄聖天宮",
      "lat": 22.83564,
      "lng": 120.3864296,
      "folder": "泊點",
      "memo": "2018/04/07 柳喬棋"
    },
    {
      "name": "霧台鄉公所",
      "lat": 22.7490234,
      "lng": 120.7282181,
      "folder": "泊點"
    },
    {
      "name": "谷川大橋",
      "lat": 22.7480759,
      "lng": 120.7045073,
      "folder": "泊點",
      "memo": "2017/04/21"
    },
    {
      "name": "道教總廟三清宮",
      "lat": 24.6394331,
      "lng": 121.7308605,
      "folder": "泊點",
      "memo": "2017/04/22"
    },
    {
      "name": "梅山公園",
      "lat": 23.5784396,
      "lng": 120.5581027,
      "folder": "泊點",
      "memo": "2017/04/30"
    },
    {
      "name": "南投縣鹿谷鄉農會鳳凰辦事處",
      "lat": 23.73489,
      "lng": 120.7840056,
      "folder": "泊點",
      "memo": "2017/04/30 莊國賓"
    },
    {
      "name": "莿桐腳濱海遊憩公園",
      "lat": 22.2609401,
      "lng": 120.6506377,
      "folder": "泊點",
      "memo": "2017/04/30"
    },
    {
      "name": "石梯遊憩風景區北口停車場",
      "lat": 23.4908199,
      "lng": 121.5081477,
      "folder": "泊點",
      "memo": "2017/04/30"
    },
    {
      "name": "滿月圓森林遊樂區停車場一",
      "lat": 24.8362893,
      "lng": 121.444911,
      "folder": "泊點",
      "memo": "2017/05/09"
    },
    {
      "name": "7-ELEVEN",
      "lat": 23.1660392,
      "lng": 120.4896007,
      "folder": "泊點"
    },
    {
      "name": "漁村公園",
      "lat": 21.9890148,
      "lng": 120.8467489,
      "folder": "泊點",
      "memo": "2017/05/12"
    },
    {
      "name": "彰化縣立體育場",
      "lat": 24.06741,
      "lng": 120.552685,
      "folder": "泊點",
      "memo": "2017/05/12"
    },
    {
      "name": "卯澳漁港停車場",
      "lat": 25.0125089,
      "lng": 121.9921526,
      "folder": "泊點",
      "memo": "2017/05/14"
    },
    {
      "name": "南庄遊客中心室外停車場",
      "lat": 24.5981014,
      "lng": 121.0002977,
      "folder": "泊點",
      "memo": "2025/10/5 偉"
    },
    {
      "name": "不厭亭",
      "lat": 25.0894062,
      "lng": 121.8475243,
      "folder": "泊點"
    },
    {
      "name": "大雪山遊客中心",
      "lat": 24.2555548,
      "lng": 121.008128,
      "folder": "泊點",
      "memo": "2017/05/22"
    },
    {
      "name": "水興公",
      "lat": 25.1621649,
      "lng": 121.425228,
      "folder": "泊點",
      "memo": "2017/05/29"
    },
    {
      "name": "台灣菸酒股份有限公司",
      "lat": 23.969256,
      "lng": 120.9714539,
      "folder": "泊點",
      "memo": "2017/05/29 box.triper"
    },
    {
      "name": "寶山部落假日市集",
      "lat": 23.0551358,
      "lng": 120.7208841,
      "folder": "泊點",
      "memo": "2017/05/29"
    },
    {
      "name": "寶山二集團櫻花公園",
      "lat": 23.059358,
      "lng": 120.7309894,
      "folder": "泊點",
      "memo": "2017/05/29"
    },
    {
      "name": "谷關立體停車場",
      "lat": 24.2028905,
      "lng": 121.0055605,
      "folder": "泊點",
      "memo": "2017/11/25"
    },
    {
      "name": "隙頂",
      "lat": 23.4164406,
      "lng": 120.6510347,
      "folder": "泊點",
      "memo": "2023/3/3 李美珍"
    },
    {
      "name": "店仔口景觀公園",
      "lat": 23.3452803,
      "lng": 120.4180067,
      "folder": "泊點",
      "memo": "2017/05/30"
    },
    {
      "name": "外埔漁港",
      "lat": 24.6481873,
      "lng": 120.7708356,
      "folder": "泊點",
      "memo": "2017/05/31"
    },
    {
      "name": "福隆舊草嶺隧道停車場",
      "lat": 25.0043999,
      "lng": 121.9583246,
      "folder": "泊點",
      "memo": "2017/05/31"
    },
    {
      "name": "水井復亨宮",
      "lat": 23.53177,
      "lng": 120.186497,
      "folder": "泊點",
      "memo": "2017/05/31"
    },
    {
      "name": "石城漁港停車場",
      "lat": 24.9800682,
      "lng": 121.9508566,
      "folder": "泊點",
      "memo": "2017/06/03"
    },
    {
      "name": "貓鼻頭公園停車場",
      "lat": 21.9220125,
      "lng": 120.7368894,
      "folder": "泊點",
      "memo": "2020/10/28 林月桂【車床天地】 泊點，澡點，景點"
    },
    {
      "name": "土地公坪停車場",
      "lat": 25.1063559,
      "lng": 121.846941,
      "folder": "泊點",
      "memo": "2017/06/09"
    },
    {
      "name": "7-11白沙灣門市",
      "lat": 21.9625677,
      "lng": 120.7404847,
      "folder": "泊點",
      "memo": "2017/06/09"
    },
    {
      "name": "日月光飯店旁",
      "lat": 22.0143408,
      "lng": 120.743992,
      "folder": "泊點",
      "memo": "2017/06/09"
    },
    {
      "name": "麥當勞",
      "lat": 21.9459668,
      "lng": 120.7944954,
      "folder": "泊點"
    },
    {
      "name": "下巴陵停車場",
      "lat": 24.6784449,
      "lng": 121.3862697,
      "folder": "泊點"
    },
    {
      "name": "勸濟堂停車場",
      "lat": 25.1124406,
      "lng": 121.8599496,
      "folder": "泊點"
    },
    {
      "name": "景明亭轉彎處可停4-5部車無水廁",
      "lat": 25.1142772,
      "lng": 121.8588629,
      "folder": "泊點"
    },
    {
      "name": "南科新港堂",
      "lat": 23.0916845,
      "lng": 120.267601,
      "folder": "泊點",
      "memo": "2017/06/18"
    },
    {
      "name": "鼻頭角另一停車點",
      "lat": 25.1242707,
      "lng": 121.9144678,
      "folder": "泊點"
    },
    {
      "name": "北迴歸線太陽館停車場",
      "lat": 23.4547627,
      "lng": 120.4177668,
      "folder": "泊點",
      "memo": "2017/02/26"
    },
    {
      "name": "阿里山鄉迷糊步道",
      "lat": 23.4718923,
      "lng": 120.7141045,
      "folder": "泊點",
      "memo": "2017/06/29"
    },
    {
      "name": "阿里山前中繼站",
      "lat": 23.5036011,
      "lng": 120.7921752,
      "folder": "泊點",
      "memo": "2017/07/03"
    },
    {
      "name": "溫泉浴室停車場",
      "lat": 25.1678755,
      "lng": 121.5631619,
      "folder": "泊點",
      "memo": "2017/07/04 蔡偉凡‎"
    },
    {
      "name": "伊達邵停車場",
      "lat": 23.8489191,
      "lng": 120.9296431,
      "folder": "泊點",
      "memo": "2017/07/06"
    },
    {
      "name": "台灣中油日月潭站",
      "lat": 23.8720069,
      "lng": 120.9171619,
      "folder": "泊點",
      "memo": "2017/07/06"
    },
    {
      "name": "安平休憩碼頭",
      "lat": 22.9970908,
      "lng": 120.1606374,
      "folder": "泊點",
      "memo": "2017/07/09"
    },
    {
      "name": "內埤海灘",
      "lat": 24.576753,
      "lng": 121.8702535,
      "folder": "泊點",
      "memo": "2024/08/16"
    },
    {
      "name": "石棹資訊站",
      "lat": 23.4797071,
      "lng": 120.6986077,
      "folder": "泊點",
      "memo": "2023/09/24"
    },
    {
      "name": "延壽亭",
      "lat": 23.9228386,
      "lng": 121.5088081,
      "folder": "泊點",
      "memo": "2017/07/24"
    },
    {
      "name": "集集攔河椻防汛道路",
      "lat": 23.8216377,
      "lng": 120.7682875,
      "folder": "泊點",
      "memo": "2017/07/28"
    },
    {
      "name": "草坪頭水廁泊點",
      "lat": 23.5509439,
      "lng": 120.8716249,
      "folder": "泊點",
      "memo": "2017/07/029"
    },
    {
      "name": "小停車場",
      "lat": 24.045192,
      "lng": 121.157105,
      "folder": "泊點"
    },
    {
      "name": "白沙灣遊客中心第二停車場",
      "lat": 25.2833191,
      "lng": 121.5141267,
      "folder": "泊點",
      "memo": "補充:"
    },
    {
      "name": "銀杏森林觀景台附近",
      "lat": 23.6853244,
      "lng": 120.762738,
      "folder": "泊點",
      "memo": "2020/06/06 袁"
    },
    {
      "name": "六十石山風景區忘憂亭",
      "lat": 23.2220199,
      "lng": 121.3165509,
      "folder": "泊點",
      "memo": "2017/08/08"
    },
    {
      "name": "港口路泊點",
      "lat": 24.8733552,
      "lng": 121.8391728,
      "folder": "泊點",
      "memo": "2017/08/08"
    },
    {
      "name": "晨軒梅莊餐廳",
      "lat": 23.634994,
      "lng": 120.885702,
      "folder": "泊點",
      "memo": "2017/08/10"
    },
    {
      "name": "瑞里野薑花溪步道停車場",
      "lat": 23.5501054,
      "lng": 120.6729698,
      "folder": "泊點",
      "memo": "2017/08/12"
    },
    {
      "name": "觀霧山椒魚生態中心 - 觀霧管理站",
      "lat": 24.506648,
      "lng": 121.1144436,
      "folder": "泊點",
      "memo": "2017/08/26"
    },
    {
      "name": "東眼橋",
      "lat": 24.868585,
      "lng": 121.4117877,
      "folder": "泊點",
      "memo": "2017/08/28"
    },
    {
      "name": "黃花亭哪",
      "lat": 23.2198022,
      "lng": 121.3074405,
      "folder": "泊點"
    },
    {
      "name": "東遊季停車場",
      "lat": 22.6960852,
      "lng": 121.0193932,
      "folder": "泊點",
      "memo": "2017/08/31 曾鐵牛"
    },
    {
      "name": "東澳灣",
      "lat": 24.511256,
      "lng": 121.837994,
      "folder": "泊點"
    },
    {
      "name": "情人灣左側停車場",
      "lat": 24.5788719,
      "lng": 121.8723417,
      "folder": "泊點"
    },
    {
      "name": "烏石鼻涼亭",
      "lat": 23.2267428,
      "lng": 121.4183342,
      "folder": "泊點"
    },
    {
      "name": "中都濕地公園遊客中心",
      "lat": 22.6476241,
      "lng": 120.2857736,
      "folder": "泊點",
      "memo": "2017/12/13"
    },
    {
      "name": "休憩涼亭",
      "lat": 22.2689825,
      "lng": 120.8854578,
      "folder": "泊點",
      "memo": "2017/09/15"
    },
    {
      "name": "三條崙海清宫",
      "lat": 23.6563848,
      "lng": 120.153676,
      "folder": "泊點",
      "memo": "2017/09/15"
    },
    {
      "name": "大肚山萬里長城",
      "lat": 24.1453952,
      "lng": 120.5571014,
      "folder": "泊點",
      "memo": "有水廁"
    },
    {
      "name": "都蘭山登山步道入口停車場",
      "lat": 22.8724501,
      "lng": 121.1795402,
      "folder": "泊點",
      "memo": "2017/09/16"
    },
    {
      "name": "舊彰原橋涼亭",
      "lat": 23.4001679,
      "lng": 121.4793062,
      "folder": "泊點"
    },
    {
      "name": "石棹泊點有水廁",
      "lat": 23.4770929,
      "lng": 120.6951544,
      "folder": "泊點",
      "memo": "2024/09/01 mingnan"
    },
    {
      "name": "三峽接天宮",
      "lat": 24.8981643,
      "lng": 121.4584537,
      "folder": "泊點",
      "memo": "有水有廁"
    },
    {
      "name": "大埔橋邊",
      "lat": 23.3019134,
      "lng": 120.630776,
      "folder": "泊點",
      "memo": "2017/10/02 ‎Su Solomon"
    },
    {
      "name": "台灣中油股份有限公司油品行銷事業部嘉南營業處",
      "lat": 23.463425,
      "lng": 120.68968,
      "folder": "泊點",
      "memo": "無水廁,看日出"
    },
    {
      "name": "烏日戰車公園",
      "lat": 24.1035054,
      "lng": 120.6139505,
      "folder": "泊點",
      "memo": "高架橋下有水有廁"
    },
    {
      "name": "竹坑南寮步道南寮社區停車場",
      "lat": 24.1756635,
      "lng": 120.5663497,
      "folder": "泊點"
    },
    {
      "name": "收費站前停車處",
      "lat": 23.5071971,
      "lng": 120.7978052,
      "folder": "泊點"
    },
    {
      "name": "紅葉公園小型車停車場",
      "lat": 23.3389072,
      "lng": 120.5071292,
      "folder": "泊點",
      "memo": "2018/01/03"
    },
    {
      "name": "新屋天后宮",
      "lat": 24.975718,
      "lng": 121.026471,
      "folder": "泊點",
      "memo": "2024/10/27 阿傑"
    },
    {
      "name": "第二停車場",
      "lat": 24.6400978,
      "lng": 121.0880799,
      "folder": "泊點"
    },
    {
      "name": "玉皇宮",
      "lat": 24.6421108,
      "lng": 121.0892419,
      "folder": "泊點",
      "memo": "2018/06/20 戴國忠"
    },
    {
      "name": "阿派的店",
      "lat": 23.3431704,
      "lng": 120.4815114,
      "folder": "泊點",
      "memo": "2017/10/20 幸玉李"
    },
    {
      "name": "蛤蜊兵營",
      "lat": 24.1432729,
      "lng": 120.4496183,
      "folder": "泊點",
      "memo": "有水廁,海風大,近火力發電廠"
    },
    {
      "name": "太子殿",
      "lat": 24.269774,
      "lng": 120.5927409,
      "folder": "泊點",
      "memo": "2017/10/29"
    },
    {
      "name": "三芝遊客中心暨名人文物館停車場",
      "lat": 25.2493208,
      "lng": 121.5074926,
      "folder": "泊點",
      "memo": "2017/11/01 吳大"
    },
    {
      "name": "新北市政府三芝區後厝市民活動中心",
      "lat": 25.2532498,
      "lng": 121.472691,
      "folder": "泊點",
      "memo": "2017/11/01 吳大"
    },
    {
      "name": "白沙灣遊客中心 第一停車場",
      "lat": 25.283196,
      "lng": 121.519115,
      "folder": "泊點",
      "memo": "2017/11/01 吳大"
    },
    {
      "name": "蛇頭山觀景臺",
      "lat": 22.9157668,
      "lng": 120.6962169,
      "folder": "泊點",
      "memo": "2017/11/06 Terry Wu"
    },
    {
      "name": "多納高吊橋",
      "lat": 22.9145318,
      "lng": 120.6884136,
      "folder": "泊點",
      "memo": "2017/11/06 Terry Wu"
    },
    {
      "name": "鳳梨社區公共廁所",
      "lat": 22.9102281,
      "lng": 120.6838556,
      "folder": "泊點",
      "memo": "停車資訊不明朗"
    },
    {
      "name": "茂林谷停車場",
      "lat": 22.880307,
      "lng": 120.6501453,
      "folder": "泊點",
      "memo": "2017/11/06"
    },
    {
      "name": "三元宮",
      "lat": 23.833673,
      "lng": 120.864476,
      "folder": "泊點"
    },
    {
      "name": "雙土地公廟",
      "lat": 23.8270063,
      "lng": 120.8618912,
      "folder": "泊點"
    },
    {
      "name": "廬山警光山莊",
      "lat": 24.024062,
      "lng": 121.1899759,
      "folder": "泊點",
      "memo": "鄭錦賢 警光山莊前車宿，到正揚飯店泡湯。"
    },
    {
      "name": "廬山溫泉風景區停車場",
      "lat": 24.0228667,
      "lng": 121.1833781,
      "folder": "泊點"
    },
    {
      "name": "香山天后宮",
      "lat": 24.7692794,
      "lng": 120.9145292,
      "folder": "泊點",
      "memo": "2025/03/27 Rock"
    },
    {
      "name": "恆春古城東門停車場",
      "lat": 22.0045309,
      "lng": 120.7505403,
      "folder": "泊點",
      "memo": "2018/12/26 施盈廷"
    },
    {
      "name": "滿州鄉公所",
      "lat": 22.020813,
      "lng": 120.838632,
      "folder": "泊點"
    },
    {
      "name": "恆春廣寧宮",
      "lat": 22.0049447,
      "lng": 120.7431121,
      "folder": "泊點",
      "memo": "2017/11/12"
    },
    {
      "name": "7-ELEVEN 環山門市",
      "lat": 24.3117282,
      "lng": 121.2917259,
      "folder": "泊點",
      "memo": "2017/11/11"
    },
    {
      "name": "合歡尖登山口停車場(安靜)",
      "lat": 24.1459165,
      "lng": 121.2841085,
      "folder": "泊點"
    },
    {
      "name": "救國團金山青年活動中心",
      "lat": 25.2254163,
      "lng": 121.64199,
      "folder": "泊點",
      "memo": "2017/11/17 吳樹"
    },
    {
      "name": "水廁點,可停幾部車",
      "lat": 24.7994306,
      "lng": 121.7394215,
      "folder": "泊點",
      "memo": "2017/11/17 張秀郎"
    },
    {
      "name": "軟埤坑休閒農業區",
      "lat": 24.1913816,
      "lng": 120.8430633,
      "folder": "泊點",
      "memo": "2023/06/15 耿曉雲"
    },
    {
      "name": "大竹湖步道停車場",
      "lat": 23.8639689,
      "lng": 120.9400847,
      "folder": "泊點"
    },
    {
      "name": "應公坑",
      "lat": 25.1326922,
      "lng": 121.3576412,
      "folder": "泊點",
      "memo": "2017/11/19"
    },
    {
      "name": "獅頭山勸化堂",
      "lat": 24.6419735,
      "lng": 121.0100648,
      "folder": "泊點",
      "memo": "2017/11/21 祝 焉島"
    },
    {
      "name": "7-ELEVEN",
      "lat": 24.847773,
      "lng": 121.2847716,
      "folder": "泊點"
    },
    {
      "name": "7-ELEVEN 家燕門市",
      "lat": 24.8443241,
      "lng": 121.8058794,
      "folder": "泊點"
    },
    {
      "name": "阿公店森林公園",
      "lat": 22.8113591,
      "lng": 120.343896,
      "folder": "泊點",
      "memo": "2020/10/23 fang ping"
    },
    {
      "name": "佳福寺",
      "lat": 23.1988259,
      "lng": 120.191826,
      "folder": "泊點",
      "memo": "2017/12/05"
    },
    {
      "name": "烘爐地停車場 有水廁",
      "lat": 24.9730616,
      "lng": 121.4980494,
      "folder": "泊點"
    },
    {
      "name": "奮起湖福德宮",
      "lat": 23.5034661,
      "lng": 120.6929441,
      "folder": "泊點",
      "memo": "2017/12/11 土豆"
    },
    {
      "name": "潮州鎮公有停車場",
      "lat": 22.552705,
      "lng": 120.5406279,
      "folder": "泊點",
      "memo": "2017/12/14 王大"
    },
    {
      "name": "龍泉步道",
      "lat": 24.654712,
      "lng": 121.6540497,
      "folder": "泊點",
      "memo": "2017/12/17 黃俊智"
    },
    {
      "name": "張學良故居",
      "lat": 24.5727048,
      "lng": 121.1056078,
      "folder": "泊點"
    },
    {
      "name": "武陵農場露營區",
      "lat": 24.380966,
      "lng": 121.304847,
      "folder": "泊點",
      "memo": "2017/12/23 謝明昇"
    },
    {
      "name": "龍崎文衡殿",
      "lat": 22.9487643,
      "lng": 120.3832492,
      "folder": "泊點"
    },
    {
      "name": "汐止天秀宮",
      "lat": 25.0527545,
      "lng": 121.6631511,
      "folder": "泊點",
      "memo": "2017/12/23 Chang Giwei"
    },
    {
      "name": "埔里遊客中心",
      "lat": 23.9695688,
      "lng": 120.9299523,
      "folder": "泊點",
      "memo": "2017/12/23 Porsche Lee"
    },
    {
      "name": "八德埤塘生態園區停車場",
      "lat": 24.9416391,
      "lng": 121.3109506,
      "folder": "泊點",
      "memo": "2017/12/24 David Seagal David"
    },
    {
      "name": "惠來公園",
      "lat": 24.1552481,
      "lng": 120.6397636,
      "folder": "泊點",
      "memo": "有水廁"
    },
    {
      "name": "慕谷慕魚停車場",
      "lat": 23.9646446,
      "lng": 121.4958615,
      "folder": "泊點"
    },
    {
      "name": "金龍山第二停車塲",
      "lat": 23.9027413,
      "lng": 120.9064554,
      "folder": "泊點"
    },
    {
      "name": "水秀停車場",
      "lat": 23.8527788,
      "lng": 120.9011051,
      "folder": "泊點",
      "memo": "水廁要到對面向山,開放式"
    },
    {
      "name": "太平國小",
      "lat": 23.5611765,
      "lng": 120.6066962,
      "folder": "泊點",
      "memo": "2018/04/12 黃喨聰"
    },
    {
      "name": "太平雲梯小客車停車場",
      "lat": 23.5594901,
      "lng": 120.6013438,
      "folder": "泊點"
    },
    {
      "name": "十分寮瀑布",
      "lat": 25.0494913,
      "lng": 121.7855662,
      "folder": "泊點",
      "memo": "2018/01/01 林貓貓"
    },
    {
      "name": "玄奘寺",
      "lat": 23.847702,
      "lng": 120.916778,
      "folder": "泊點",
      "memo": "2018/01/01 張金能"
    },
    {
      "name": "蓮華山三聖宮",
      "lat": 24.8313529,
      "lng": 121.098895,
      "folder": "泊點",
      "memo": "有水廁"
    },
    {
      "name": "樂山林道觀景平台",
      "lat": 24.499583,
      "lng": 121.087842,
      "folder": "泊點",
      "memo": "無水廁"
    },
    {
      "name": "林內公園",
      "lat": 23.753924,
      "lng": 120.616578,
      "folder": "泊點",
      "memo": "2018/01/03 何安迪"
    },
    {
      "name": "控溪吊橋",
      "lat": 24.6202295,
      "lng": 121.2870429,
      "folder": "泊點",
      "memo": "2018/01/05 陳耀欽"
    },
    {
      "name": "南安遊客中心",
      "lat": 23.3025256,
      "lng": 121.2588434,
      "folder": "泊點",
      "memo": "2018/01/06 Eric Oue"
    },
    {
      "name": "石榴",
      "lat": 23.7316631,
      "lng": 120.5799898,
      "folder": "泊點",
      "memo": "2018/01/07 ‎施盈廷"
    },
    {
      "name": "梅林公園",
      "lat": 23.7019279,
      "lng": 120.5883773,
      "folder": "泊點",
      "memo": "2024/06/13 水教官"
    },
    {
      "name": "台江國家公園管理處",
      "lat": 23.0016514,
      "lng": 120.1390466,
      "folder": "泊點",
      "memo": "2018/01/18 ‎Joy Lin‎"
    },
    {
      "name": "美濃湖水廁點,路邊可泊",
      "lat": 22.9065508,
      "lng": 120.550999,
      "folder": "泊點"
    },
    {
      "name": "魚池九二一地震紀念公園",
      "lat": 23.883628,
      "lng": 120.9231824,
      "folder": "泊點",
      "memo": "2018/01/20 施盈廷"
    },
    {
      "name": "7-ELEVEN 頭目門市",
      "lat": 22.7138891,
      "lng": 120.6525129,
      "folder": "泊點",
      "memo": "2018/01/22 姚順信"
    },
    {
      "name": "八仙山國家森林遊樂區",
      "lat": 24.1919103,
      "lng": 121.0152037,
      "folder": "泊點",
      "memo": "2018/01/22"
    },
    {
      "name": "福德祠",
      "lat": 24.8240774,
      "lng": 121.2504762,
      "folder": "泊點",
      "memo": "2018/01/23 黃能銘‎"
    },
    {
      "name": "望龍埤",
      "lat": 24.7739009,
      "lng": 121.6992232,
      "folder": "泊點",
      "memo": "2018/01/24 陳金河"
    },
    {
      "name": "北苑停車場",
      "lat": 24.8184164,
      "lng": 121.2443501,
      "folder": "泊點"
    },
    {
      "name": "獅子亭",
      "lat": 23.0592818,
      "lng": 120.7293257,
      "folder": "泊點",
      "memo": "2018/01/24 ‎幸玉李"
    },
    {
      "name": "土地公(光武石橋頭福德廟)",
      "lat": 24.7823065,
      "lng": 121.7626604,
      "folder": "泊點",
      "memo": "2018/01/26 施盈廷"
    },
    {
      "name": "種子星球來作客",
      "lat": 24.7230605,
      "lng": 121.0087083,
      "folder": "泊點",
      "memo": "2018/01/27 Paul Chen"
    },
    {
      "name": "二層坪停車場",
      "lat": 23.1818522,
      "lng": 120.5575579,
      "folder": "泊點",
      "memo": "無水廁"
    },
    {
      "name": "林內濟公堂",
      "lat": 23.753702,
      "lng": 120.6155125,
      "folder": "泊點",
      "memo": "2018/01/28 施盈廷‎·"
    },
    {
      "name": "大尖山公有停車場",
      "lat": 21.9465152,
      "lng": 120.795475,
      "folder": "泊點",
      "memo": "2018/01/28 ‎Sophie Chang‎"
    },
    {
      "name": "虎頭山第一停車場",
      "lat": 23.129126,
      "lng": 120.481236,
      "folder": "泊點",
      "memo": "2018/01/28 Joy Lin"
    },
    {
      "name": "大鵬灣濱灣公園-帆船基地",
      "lat": 22.436592,
      "lng": 120.4773622,
      "folder": "泊點",
      "memo": "2018/02/02"
    },
    {
      "name": "停車場",
      "lat": 23.6147578,
      "lng": 121.4169271,
      "folder": "泊點"
    },
    {
      "name": "林後四林平地森林園區",
      "lat": 22.5386812,
      "lng": 120.590396,
      "folder": "泊點"
    },
    {
      "name": "溪州森林公園",
      "lat": 23.8524091,
      "lng": 120.4917744,
      "folder": "泊點",
      "memo": "2018/02/04 SG Lee"
    },
    {
      "name": "park",
      "lat": 23.0668408,
      "lng": 120.6837201,
      "folder": "泊點"
    },
    {
      "name": "石硦林場",
      "lat": 23.4071726,
      "lng": 120.5706915,
      "folder": "泊點",
      "memo": "2024/04/18 Ja-Wee Lin ·"
    },
    {
      "name": "小野柳停車場",
      "lat": 22.7969358,
      "lng": 121.1959814,
      "folder": "泊點",
      "memo": "2021/01/04 吳家瑜"
    },
    {
      "name": "萬年公園",
      "lat": 22.664582,
      "lng": 120.4848511,
      "folder": "泊點",
      "memo": "西北側有水廁"
    },
    {
      "name": "苦伕寮公園",
      "lat": 22.432857,
      "lng": 120.513752,
      "folder": "泊點",
      "memo": "2018/02/10 施盈廷"
    },
    {
      "name": "地母廟",
      "lat": 23.9509692,
      "lng": 120.9880087,
      "folder": "泊點",
      "memo": "寶湖宮天地堂地母廟車宿一晚，此處交通便捷水廁方便，停車位數量多到無需擔憂，環境清幽夜晚安靜，確實是車床族極佳的車宿休息好地點。"
    },
    {
      "name": "地母廟第二停車場",
      "lat": 23.9514693,
      "lng": 120.9889448,
      "folder": "泊點",
      "memo": "2023/0907 黃R"
    },
    {
      "name": "恆春夜市",
      "lat": 22.0030684,
      "lng": 120.7415193,
      "folder": "泊點",
      "memo": "2018/02/14 沈昆山"
    },
    {
      "name": "五甲公園",
      "lat": 22.5936943,
      "lng": 120.3230773,
      "folder": "泊點",
      "memo": "2018/02/14 吳宏榮"
    },
    {
      "name": "香蕉碼頭",
      "lat": 22.6184066,
      "lng": 120.2785617,
      "folder": "泊點",
      "memo": "台華輪處有水廁"
    },
    {
      "name": "大湖公園",
      "lat": 25.0822805,
      "lng": 121.6044519,
      "folder": "泊點",
      "memo": "2018/02/14 柳喬棋"
    },
    {
      "name": "車城 福安宮",
      "lat": 22.0711021,
      "lng": 120.7109978,
      "folder": "泊點",
      "memo": "2018/02/14 劉建麟"
    },
    {
      "name": "磺溪書院水廁點",
      "lat": 24.1498741,
      "lng": 120.5405223,
      "folder": "泊點",
      "memo": "2018/02/16 Huey Luo"
    },
    {
      "name": "靈山公園",
      "lat": 25.11779,
      "lng": 121.463461,
      "folder": "泊點",
      "memo": "2018/02/17 柳喬棋"
    },
    {
      "name": "石梯漁港公廁",
      "lat": 23.4925567,
      "lng": 121.5062021,
      "folder": "泊點",
      "memo": "2018/02/18 施盈廷"
    },
    {
      "name": "台灣中油 梨山站(直營)",
      "lat": 24.254716,
      "lng": 121.2464283,
      "folder": "泊點",
      "memo": "2018/02/18 ‎林烜陞"
    },
    {
      "name": "車城鄉統埔鎮安宮",
      "lat": 22.0744533,
      "lng": 120.7276178,
      "folder": "泊點",
      "memo": "2024/2/13 林灑玲"
    },
    {
      "name": "郡界福安堂",
      "lat": 22.8501564,
      "lng": 121.1909574,
      "folder": "泊點",
      "memo": "2018/02/18 ‎陳曉修"
    },
    {
      "name": "中央公園站",
      "lat": 22.6248912,
      "lng": 120.3010054,
      "folder": "泊點",
      "memo": "2018/02/18 David Seagal David‎"
    },
    {
      "name": "全家便利商店",
      "lat": 22.8245636,
      "lng": 120.6011969,
      "folder": "泊點",
      "memo": "2018/02/19 ‎朱大寶"
    },
    {
      "name": "停車處",
      "lat": 25.015552,
      "lng": 121.9891834,
      "folder": "泊點"
    },
    {
      "name": "旭海公共停車場",
      "lat": 22.1926571,
      "lng": 120.8885289,
      "folder": "泊點",
      "memo": "2018/02/22李宛青"
    },
    {
      "name": "民權街停車場",
      "lat": 23.3345477,
      "lng": 121.3195973,
      "folder": "泊點",
      "memo": "2018/02/21 李宛青"
    },
    {
      "name": "土匪山生態園區",
      "lat": 23.4172455,
      "lng": 120.6438974,
      "folder": "泊點",
      "memo": "停車場對面市集有水廁"
    },
    {
      "name": "木屐寮生態園區",
      "lat": 23.7837348,
      "lng": 120.7059811,
      "folder": "泊點",
      "memo": "2018/02/25 施盈廷"
    },
    {
      "name": "大林福德宮",
      "lat": 24.9212277,
      "lng": 121.6945696,
      "folder": "泊點",
      "memo": "2018/03/04 温瑞斌"
    },
    {
      "name": "米飛園區",
      "lat": 25.1640921,
      "lng": 121.412336,
      "folder": "泊點",
      "memo": "2018/03/04 施盈廷"
    },
    {
      "name": "鰲峰宮",
      "lat": 23.6514629,
      "lng": 120.313835,
      "folder": "泊點",
      "memo": "2018/03/01 box triper"
    },